City_ID,City,Country,Lat,Lng,Max Temp,Humidity,Couldiness,Wind Speed
0,Cockburn Town,TC,21.4612,-71.1419,82.47,73,4,5.23
1,Bredasdorp,ZA,-34.5322,20.0403,59.29,82,100,4.5
2,Mattru,SL,7.6244,-11.8332,73.09,99,97,2.48
3,Storforshei,NO,66.4043,14.5233,43.66,98,100,4.43
4,Qaanaaq,GL,77.484,-69.3632,16.38,71,25,7.65
5,Georgetown,MY,5.4112,100.3354,88.9,74,20,13.0
6,Castro,BR,-24.7911,-50.0119,55.47,97,12,4.29
7,Auki,SB,-8.7676,160.7034,81.59,77,23,3.04
8,Rikitea,PF,-23.1203,-134.9692,73.94,71,3,16.82
9,Atuona,PF,-9.8,-139.0333,78.12,75,46,19.19
10,Mataura,NZ,-46.1927,168.8643,43.48,91,91,1.61
11,Moerai,PF,-22.4333,-151.3333,75.4,77,0,14.74
12,Atuona,PF,-9.8,-139.0333,78.12,75,46,19.19
13,Chokurdakh,RU,70.6333,147.9167,32.92,98,100,15.9
14,Ixtapa,MX,20.7,-105.2,77.23,97,100,2.77
15,Ballina,AU,-28.8667,153.5667,66.38,72,40,14.97
16,Marawi,PH,7.9986,124.2928,74.64,82,98,3.27
17,Volga,RU,57.9516,38.3879,47.37,95,100,4.88
18,Mataura,NZ,-46.1927,168.8643,43.48,91,91,1.61
19,Sao Filipe,CV,14.8961,-24.4956,77.9,75,72,8.97
20,Busselton,AU,-33.65,115.3333,61.05,75,61,12.5
21,Lorengau,PG,-2.0226,147.2712,83.91,73,100,6.4
22,Cabo San Lucas,MX,22.8909,-109.9124,85.51,81,2,4.0
23,Bjerkvik,NO,68.5597,17.5189,46.2,72,100,5.95
24,Rikitea,PF,-23.1203,-134.9692,73.94,71,3,16.82
25,Mahebourg,MU,-20.4081,57.7,77.29,69,75,12.66
26,Kosh-Agach,RU,50.0,88.6667,40.87,34,99,23.42
27,Hermanus,ZA,-34.4187,19.2345,63.9,84,100,5.82
28,Bredasdorp,ZA,-34.5322,20.0403,59.29,82,100,4.5
29,Mataura,NZ,-46.1927,168.8643,43.48,91,91,1.61
30,Cayenne,GF,4.9333,-52.3333,80.1,86,75,2.3
31,Pisco,PE,-13.7,-76.2167,60.85,82,75,5.75
32,Vaini,TO,-21.2,-175.2,69.96,94,75,6.91
33,Khatanga,RU,71.9667,102.5,37.08,72,100,12.28
34,Butaritari,KI,3.0707,172.7902,82.69,77,25,12.48
35,Rikitea,PF,-23.1203,-134.9692,73.94,71,3,16.82
36,Nedjo,ET,9.5046,35.5019,57.09,97,100,1.19
37,Hithadhoo,MV,-0.6,73.0833,82.49,76,100,14.76
38,Saint-Pierre,RE,-21.3393,55.4781,80.29,64,0,31.07
39,Nikolskoye,RU,59.7035,30.7861,49.39,88,100,9.19
40,Tuktoyaktuk,CA,69.4541,-133.0374,33.6,97,100,13.65
41,Saint-Philippe,RE,-21.3585,55.7679,80.22,80,47,14.9
42,Hervey Bay,AU,-25.2986,152.8535,75.31,70,95,19.3
43,Ushuaia,AR,-54.8,-68.3,37.06,65,40,8.05
44,Upernavik,GL,72.7868,-56.1549,19.35,62,0,4.92
45,Mataura,NZ,-46.1927,168.8643,43.48,91,91,1.61
46,Rawson,AR,-43.3002,-65.1023,48.27,54,6,21.45
47,Guerrero Negro,MX,27.9769,-114.0611,69.75,76,38,13.18
48,Touros,BR,-5.1989,-35.4608,74.3,87,47,14.09
49,Albany,US,42.6001,-73.9662,59.59,92,77,7.05
50,Lebu,CL,-37.6167,-73.65,46.44,85,14,13.24
51,Luderitz,NA,-26.6481,15.1594,67.44,47,7,14.05
52,Udachnyy,RU,66.4167,112.4,41.18,46,26,15.17
53,Chuy,UY,-33.6971,-53.4616,58.96,88,92,2.37
54,Dingle,PH,10.9995,122.6711,86.59,71,51,4.97
55,Arraial Do Cabo,BR,-22.9661,-42.0278,70.47,83,82,25.52
56,Georgetown,MY,5.4112,100.3354,88.9,74,20,13.0
57,Parana,AR,-31.732,-60.5238,60.57,82,0,8.68
58,Port Hardy,CA,50.6996,-127.4199,53.78,94,90,6.91
59,Sitka,US,57.0531,-135.33,46.29,87,75,0.0
60,Arraial Do Cabo,BR,-22.9661,-42.0278,70.47,83,82,25.52
61,Ust-Omchug,RU,61.15,149.6333,36.55,84,98,6.78
62,Nanortalik,GL,60.1432,-45.2371,37.26,71,10,6.53
63,Timbiqui,CO,2.7717,-77.6654,75.99,93,100,3.36
64,Bengkulu,ID,-3.8004,102.2655,76.57,90,100,9.86
65,Ushuaia,AR,-54.8,-68.3,37.06,65,40,8.05
66,Albany,US,42.6001,-73.9662,59.59,92,77,7.05
67,Myitkyina,MM,25.3833,97.4,93.92,47,13,0.98
68,Ushuaia,AR,-54.8,-68.3,37.06,65,40,8.05
69,Rikitea,PF,-23.1203,-134.9692,73.94,71,3,16.82
70,Geraldton,AU,-28.7667,114.6,68.41,60,75,16.11
71,Vestmannaeyjar,IS,63.4427,-20.2734,41.56,68,100,1.59
72,Hobart,AU,-42.8794,147.3294,56.12,55,40,1.01
73,Arraial Do Cabo,BR,-22.9661,-42.0278,70.47,83,82,25.52
74,French Harbor,HN,16.35,-86.4333,84.2,85,20,11.5
75,Dingle,PH,10.9995,122.6711,86.59,71,51,4.97
76,Rikitea,PF,-23.1203,-134.9692,73.94,71,3,16.82
77,Kahului,US,20.8947,-156.47,79.84,79,1,17.27
78,Zhigansk,RU,66.7697,123.3711,39.81,58,11,15.03
79,Bow Island,CA,49.8668,-111.3684,58.21,64,12,3.44
80,Southbridge,US,42.0751,-72.0334,64.92,97,100,1.72
81,Carnarvon,AU,-24.8667,113.6333,73.47,46,0,13.8
82,Guozhen,CN,34.3659,107.359,66.13,97,100,2.62
83,Castro,BR,-24.7911,-50.0119,55.47,97,12,4.29
84,Ushuaia,AR,-54.8,-68.3,37.06,65,40,8.05
85,Rikitea,PF,-23.1203,-134.9692,73.94,71,3,16.82
86,Hithadhoo,MV,-0.6,73.0833,82.49,76,100,14.76
87,Parana,AR,-31.732,-60.5238,60.57,82,0,8.68
88,Rikitea,PF,-23.1203,-134.9692,73.94,71,3,16.82
89,Cape Town,ZA,-33.9258,18.4232,64.11,90,75,2.3
90,Hermanus,ZA,-34.4187,19.2345,64.9,84,100,5.82
91,Hansi,IN,29.1,75.9667,90.18,51,0,8.3
92,Hobart,AU,-42.8794,147.3294,56.12,55,40,1.01
93,Comodoro Rivadavia,AR,-45.8667,-67.5,40.86,60,0,13.8
94,Sambava,MG,-14.2667,50.1667,74.59,78,66,15.82
95,Vaini,TO,-21.2,-175.2,69.96,94,75,6.91
96,Vao,NC,-22.6667,167.4833,68.31,59,98,12.03
97,Kodiak,US,57.79,-152.4072,37.53,81,17,7.47
98,Ahtopol,BG,42.1,27.95,64.87,60,0,4.12
99,Mahebourg,MU,-20.4081,57.7,77.29,69,75,12.66
100,Longyearbyen,SJ,78.2186,15.6401,37.18,99,100,2.21
101,Atuona,PF,-9.8,-139.0333,78.12,75,46,19.19
102,Sioux Lookout,CA,50.1001,-91.917,52.18,87,75,0.0
103,Georgetown,MY,5.4112,100.3354,87.75,74,20,13.0
104,Vaini,TO,-21.2,-175.2,69.96,94,75,6.91
105,Busselton,AU,-33.65,115.3333,61.05,75,61,12.5
106,Albany,US,42.6001,-73.9662,59.59,92,77,7.05
107,Puerto Escondido,MX,15.85,-97.0667,78.51,84,100,4.97
108,Sao Filipe,CV,14.8961,-24.4956,77.9,75,72,8.97
109,Ranong,TH,9.9658,98.6348,78.73,96,100,4.74
110,Ushuaia,AR,-54.8,-68.3,37.06,65,40,8.05
111,Hithadhoo,MV,-0.6,73.0833,82.49,76,100,14.76
112,Lavrentiya,RU,65.5833,-171.0,30.38,83,56,4.76
113,Geraldton,AU,-28.7667,114.6,68.41,60,75,16.11
114,Vila,PT,42.0304,-8.1588,53.33,95,87,3.85
115,Hay River,CA,60.8156,-115.7999,39.18,93,20,0.0
116,Rikitea,PF,-23.1203,-134.9692,73.94,71,3,16.82
117,Punta Arenas,CL,-53.15,-70.9167,33.91,86,40,8.05
118,Cape Town,ZA,-33.9258,18.4232,64.11,90,75,2.3
119,Jamestown,US,42.097,-79.2353,53.08,96,75,1.01
120,Sheridan,US,44.8333,-106.9173,70.3,20,39,5.01
121,Garowe,SO,8.4054,48.4845,88.02,39,94,22.37
122,Olden,NO,61.8364,6.8064,57.9,81,100,10.31
123,Zunyi,CN,27.6867,106.9072,83.77,52,12,11.25
124,Qaanaaq,GL,77.484,-69.3632,16.38,71,25,7.65
125,Mataura,NZ,-46.1927,168.8643,43.48,91,91,1.61
126,Beringovskiy,RU,63.05,179.3167,36.84,59,65,7.99
127,Hobart,AU,-42.8794,147.3294,56.12,55,40,1.01
128,Salalah,OM,17.0151,54.0924,87.62,66,95,9.17
129,Touros,BR,-5.1989,-35.4608,74.3,87,47,14.09
130,Mataura,NZ,-46.1927,168.8643,43.48,91,91,1.61
131,Ponta Do Sol,PT,32.6667,-17.1,69.71,67,100,2.51
132,Mayachnyy,RU,52.6839,55.685,56.98,49,100,3.76
133,Seymour,US,38.9592,-85.8903,53.47,95,6,4.74
134,Warrensburg,US,38.7628,-93.7361,62.29,73,1,5.99
135,Punta Arenas,CL,-53.15,-70.9167,33.91,86,40,8.05
136,Albany,US,42.6001,-73.9662,59.59,92,77,7.05
137,Shingu,JP,33.7333,135.9833,76.19,94,100,18.63
138,Arraial Do Cabo,BR,-22.9661,-42.0278,70.47,83,82,25.52
139,Port Lincoln,AU,-34.7333,135.8667,58.6,59,43,12.95
140,Vao,NC,-22.6667,167.4833,68.31,59,98,12.03
141,Bonthe,SL,7.5264,-12.505,75.72,91,100,4.88
142,Punta Arenas,CL,-53.15,-70.9167,33.91,86,40,8.05
143,Sakakah,SA,29.9697,40.2064,80.17,26,0,12.08
144,Tuktoyaktuk,CA,69.4541,-133.0374,33.6,97,100,13.65
145,Seoul,KR,37.5683,126.9778,80.17,47,0,8.05
146,Clyde River,CA,70.4692,-68.5914,24.24,87,18,4.9
147,Hermanus,ZA,-34.4187,19.2345,64.9,84,100,5.82
148,Rikitea,PF,-23.1203,-134.9692,73.94,71,3,16.82
149,Albany,US,42.6001,-73.9662,59.59,92,77,7.05
150,Mataura,NZ,-46.1927,168.8643,43.48,91,91,1.61
151,Narsaq,GL,60.9167,-46.05,30.97,46,8,8.23
152,Praia,CV,14.9215,-23.5087,77.54,83,75,8.05
153,Provideniya,RU,64.3833,-173.3,34.59,75,80,5.7
154,Cape Town,ZA,-33.9258,18.4232,64.11,90,75,2.3
155,Bengkulu,ID,-3.8004,102.2655,76.57,90,100,9.86
156,Sakaraha,MG,-22.9,44.5333,86.79,14,0,6.08
157,Korla,CN,41.7597,86.1469,73.0,16,0,9.57
158,Castro,BR,-24.7911,-50.0119,55.47,97,12,4.29
159,Ribeira Grande,PT,38.5167,-28.7,66.6,88,40,5.75
160,Port Macquarie,AU,-31.4333,152.9167,57.16,77,100,10.07
161,Mataura,NZ,-46.1927,168.8643,43.48,91,91,1.61
162,East Wenatchee Bench,US,47.4257,-120.2812,70.3,47,100,5.82
163,Voh,NC,-20.9667,164.7,70.65,70,92,9.31
164,Nador,MA,35.174,-2.9287,62.85,88,0,2.3
165,Puerto Ayora,EC,-0.7393,-90.3518,68.79,89,93,7.34
166,Yellowknife,CA,62.456,-114.3525,39.29,99,20,5.75
167,Pisco,PE,-13.7,-76.2167,60.85,82,75,5.75
168,Butaritari,KI,3.0707,172.7902,82.69,77,25,12.48
169,Esperance,AU,-33.8667,121.9,76.84,70,91,11.88
170,Lima,PE,-12.0432,-77.0282,58.14,87,90,9.22
171,Iqaluit,CA,63.7506,-68.5145,33.53,74,90,10.0
172,Sao Joao Da Barra,BR,-21.6403,-41.0511,70.66,76,100,18.68
173,Port Lincoln,AU,-34.7333,135.8667,58.6,59,43,12.95
174,Jamestown,US,42.097,-79.2353,53.08,96,75,1.01
175,Esperance,AU,-33.8667,121.9,76.84,70,91,11.88
176,Ponta Do Sol,PT,32.6667,-17.1,69.71,67,100,2.51
177,Georgetown,MY,5.4112,100.3354,87.75,74,20,13.0
178,Kapaa,US,22.0752,-159.319,78.12,73,32,4.0
179,Mataura,NZ,-46.1927,168.8643,43.48,91,91,1.61
180,Ponta Do Sol,PT,32.6667,-17.1,69.71,67,100,2.51
181,Kismayo,SO,-0.3582,42.5454,81.77,67,8,17.85
182,Ushuaia,AR,-54.8,-68.3,37.06,65,40,8.05
183,Bozova,TR,37.3625,38.5267,68.92,27,0,7.63
184,Khatanga,RU,71.9667,102.5,37.08,72,100,12.28
185,Carnarvon,AU,-24.8667,113.6333,73.47,46,0,13.8
186,Albany,US,42.6001,-73.9662,59.59,91,77,7.05
187,Rikitea,PF,-23.1203,-134.9692,73.94,71,3,16.82
188,New Norfolk,AU,-42.7826,147.0587,55.76,53,18,1.01
189,Novaya Mayna,RU,54.15,49.75,50.04,64,100,5.91
190,Geraldton,AU,-28.7667,114.6,68.41,60,75,16.11
191,Khatanga,RU,71.9667,102.5,37.08,72,100,12.28
192,Deming,US,32.2687,-107.7586,62.24,81,52,5.32
193,New Norfolk,AU,-42.7826,147.0587,55.76,53,18,1.01
194,Namibe,AO,-15.1961,12.1522,63.79,81,45,3.38
195,Narsaq,GL,60.9167,-46.05,30.97,46,8,8.23
196,Laramie,US,41.3114,-105.5911,61.11,29,1,7.34
197,Port Hardy,CA,50.6996,-127.4199,53.78,94,90,6.91
198,Troitsko-Pechorsk,RU,62.7084,56.1964,42.31,77,100,10.83
199,Mineiros,BR,-17.5694,-52.5511,79.9,39,100,10.0
200,Sur,OM,22.5667,59.5289,94.24,43,8,5.84
201,Broken Hill,AU,-31.95,141.4333,64.11,22,1,12.66
202,Rikitea,PF,-23.1203,-134.9692,73.94,71,3,16.82
203,Hervey Bay,AU,-25.2986,152.8535,75.31,70,95,19.3
204,Beloha,MG,-25.1667,45.05,83.32,30,0,6.29
205,Georgetown,MY,5.4112,100.3354,87.75,74,20,13.0
206,Husavik,IS,66.0449,-17.3389,40.91,96,100,29.1
207,Tasiilaq,GL,65.6145,-37.6368,26.73,57,100,3.83
208,Lagoa,PT,39.05,-27.9833,69.69,83,6,12.48
209,Talnakh,RU,69.4865,88.3972,40.62,43,51,1.99
210,Busselton,AU,-33.65,115.3333,61.05,75,61,12.5
211,Grass Valley,US,39.2191,-121.0611,68.38,43,90,3.0
212,Arraial Do Cabo,BR,-22.9661,-42.0278,70.47,83,82,25.52
213,Phangnga,TH,8.4509,98.5298,80.71,96,100,3.71
214,Falam,MM,22.9167,93.6833,71.91,79,68,4.09
215,Balastya,HU,46.4228,20.0082,57.49,53,0,6.42
216,Lebu,CL,-37.6167,-73.65,46.44,85,14,13.24
217,Nampula,MZ,-15.1165,39.2666,73.35,73,40,3.44
218,Rikitea,PF,-23.1203,-134.9692,73.94,71,3,16.82
219,Saint-Pierre,RE,-21.3393,55.4781,80.29,64,0,31.07
220,Margate,GB,51.3813,1.3862,64.11,95,85,9.98
221,Rikitea,PF,-23.1203,-134.9692,73.94,71,3,16.82
222,Nikolskoye,RU,59.7035,30.7861,49.39,88,100,9.19
223,Hermanus,ZA,-34.4187,19.2345,64.9,84,100,5.82
224,Albany,US,42.6001,-73.9662,59.59,91,77,7.05
225,Camacha,PT,33.0833,-16.3333,65.62,77,20,0.0
226,Mayo,US,38.8876,-76.5119,65.01,83,6,1.99
227,Vila Franca Do Campo,PT,37.7167,-25.4333,72.19,90,100,7.65
228,Arraial Do Cabo,BR,-22.9661,-42.0278,70.47,83,82,25.52
229,Komsomolskiy,UZ,40.4272,71.7189,83.12,15,0,6.91
230,Thompson,CA,55.7435,-97.8558,44.76,81,75,3.44
231,Mataura,NZ,-46.1927,168.8643,43.48,91,91,1.61
232,Fairbanks,US,64.8378,-147.7164,31.6,93,100,1.05
233,Puerto Ayora,EC,-0.7393,-90.3518,68.79,89,93,7.34
234,Ushuaia,AR,-54.8,-68.3,37.06,65,40,8.05
235,Dikson,RU,73.5069,80.5464,36.0,84,100,20.04
236,Hermanus,ZA,-34.4187,19.2345,64.9,84,100,5.82
237,Ode,NG,7.7899,5.7117,70.0,92,100,3.2
238,Rikitea,PF,-23.1203,-134.9692,73.94,71,3,16.82
239,Hobart,AU,-42.8794,147.3294,56.12,55,40,1.01
240,Bredasdorp,ZA,-34.5322,20.0403,59.29,82,100,4.5
241,Cerrito,CO,6.8432,-72.694,50.14,88,99,3.83
242,Middle Island,US,40.8843,-72.9373,66.88,84,20,4.61
243,Tambopata,PE,-12.7333,-69.1833,73.83,64,53,2.51
244,Rikitea,PF,-23.1203,-134.9692,73.94,71,3,16.82
245,Mataura,NZ,-46.1927,168.8643,43.48,91,91,1.61
246,Vaini,TO,-21.2,-175.2,69.96,94,75,6.91
247,Hermanus,ZA,-34.4187,19.2345,64.9,84,100,5.82
248,Kieta,PG,-6.2167,155.6333,81.19,82,100,5.23
249,Bethel,US,41.3712,-73.414,61.05,92,65,3.11
250,Vaini,TO,-21.2,-175.2,69.96,94,75,6.91
251,Beringovskiy,RU,63.05,179.3167,36.84,59,65,7.99
252,Albany,US,42.6001,-73.9662,59.59,91,77,7.05
253,Cape Town,ZA,-33.9258,18.4232,65.12,89,75,1.99
254,Boddam,GB,57.4667,-1.7833,61.43,99,100,14.97
255,Vallenar,CL,-28.5708,-70.7581,62.01,45,0,2.51
256,Vaini,TO,-21.2,-175.2,69.96,94,75,6.91
257,Clyde River,CA,70.4692,-68.5914,24.24,87,18,4.9
258,Lata,PT,40.1629,-8.3327,60.04,93,94,2.95
259,Victoria,HK,22.2855,114.1577,92.97,72,25,1.01
260,Bengkulu,ID,-3.8004,102.2655,76.57,90,100,9.86
261,Severo-Kurilsk,RU,50.6789,156.125,47.93,87,5,11.07
262,San Cristobal,VE,7.7669,-72.225,63.72,96,39,2.8
263,Ushuaia,AR,-54.8,-68.3,37.06,65,40,8.05
264,Bredasdorp,ZA,-34.5322,20.0403,59.29,82,100,4.5
265,Cape Town,ZA,-33.9258,18.4232,65.12,89,75,1.99
266,Albany,US,42.6001,-73.9662,59.59,91,77,7.05
267,Atuona,PF,-9.8,-139.0333,78.12,75,46,19.19
268,Dingle,PH,10.9995,122.6711,86.59,71,51,4.97
269,Ushuaia,AR,-54.8,-68.3,37.06,65,40,8.05
270,Urucara,BR,-2.5364,-57.76,74.28,91,99,0.94
271,Diamantino,BR,-14.4086,-56.4461,76.48,54,8,4.45
272,Faya,SA,18.3851,42.4509,77.11,17,3,9.57
273,Namibe,AO,-15.1961,12.1522,63.79,81,45,3.38
274,Puerto Ayora,EC,-0.7393,-90.3518,68.79,89,93,7.34
275,Cody,US,44.5263,-109.0565,65.21,36,2,11.18
276,Hobart,AU,-42.8794,147.3294,56.12,55,40,1.01
277,Iranshahr,IR,27.2025,60.6848,95.34,31,0,4.61
278,Vaini,TO,-21.2,-175.2,69.96,94,75,6.91
279,Birzai,LT,56.2,24.75,51.93,77,11,10.8
280,Dudinka,RU,69.4058,86.1778,41.38,47,13,5.99
281,Hermanus,ZA,-34.4187,19.2345,64.9,84,100,5.82
282,Bahia Honda,CU,22.9036,-83.1592,77.23,86,5,2.75
283,Butaritari,KI,3.0707,172.7902,82.69,77,25,12.48
284,Port Alfred,ZA,-33.5906,26.891,66.38,72,87,8.21
285,Cape Town,ZA,-33.9258,18.4232,65.12,89,75,1.99
286,Alofi,NU,-19.0595,-169.9187,74.21,55,98,5.21
287,Jamestown,US,42.097,-79.2353,53.08,96,75,1.01
288,Airai,TL,-8.9266,125.4092,71.69,54,95,2.64
289,Uyemskiy,RU,64.4743,40.8524,48.25,87,90,6.71
290,Umm Kaddadah,SD,13.6017,26.6876,80.65,58,72,10.67
291,Bluff,NZ,-46.6,168.3333,42.8,60,99,11.16
292,Kargasok,RU,59.0556,80.8572,37.13,92,100,12.68
293,Yangjiang,CN,21.85,111.9667,87.94,74,93,9.37
294,Faya,SA,18.3851,42.4509,77.11,17,3,9.57
295,Karoi,ZW,-16.8099,29.6925,73.83,31,0,10.98
296,Hobart,AU,-42.8794,147.3294,56.12,55,40,1.01
297,Punta Arenas,CL,-53.15,-70.9167,33.91,86,40,8.05
298,Tuktoyaktuk,CA,69.4541,-133.0374,33.6,97,100,13.65
299,Henties Bay,NA,-22.116,14.2845,53.85,80,0,3.33
300,Severo-Kurilsk,RU,50.6789,156.125,47.93,87,5,11.07
301,Coahuayana,MX,18.7333,-103.6833,78.31,89,100,2.75
302,Portland,US,45.5234,-122.6762,63.68,77,7,4.0
303,Jamestown,US,42.097,-79.2353,53.08,96,75,1.01
304,Saint George,US,37.1041,-113.5841,79.95,33,94,1.99
305,Atuona,PF,-9.8,-139.0333,78.12,75,46,19.19
306,Cayenne,GF,4.9333,-52.3333,80.1,86,75,2.3
307,Inhambane,MZ,-23.865,35.3833,79.56,58,0,6.42
308,Albany,US,42.6001,-73.9662,59.59,91,77,7.05
309,Fortuna,US,40.5982,-124.1573,59.41,70,90,0.0
310,Bredasdorp,ZA,-34.5322,20.0403,59.29,82,100,4.5
311,Kichera,RU,55.9375,110.0997,40.46,99,100,9.55
312,Provideniya,RU,64.3833,-173.3,34.59,75,80,5.7
313,Cantaura,VE,9.3057,-64.3584,72.77,86,38,1.72
314,Vila Franca Do Campo,PT,37.7167,-25.4333,72.19,90,100,7.65
315,Hermanus,ZA,-34.4187,19.2345,64.9,84,100,5.82
316,Ulladulla,AU,-35.35,150.4667,58.87,61,62,5.79
317,Tasiilaq,GL,65.6145,-37.6368,26.73,57,100,3.83
318,Busselton,AU,-33.65,115.3333,61.05,75,61,12.5
319,Shu,KZ,43.5983,73.7614,84.29,7,9,3.62
320,Hilo,US,19.7297,-155.09,79.29,88,75,4.61
321,Barrow,US,71.2906,-156.7887,26.62,86,90,5.75
322,Lukaya,UG,-0.1489,31.8748,77.4,52,66,5.91
323,Hobart,AU,-42.8794,147.3294,56.12,55,40,1.01
324,Rikitea,PF,-23.1203,-134.9692,73.94,71,3,16.82
325,Hermanus,ZA,-34.4187,19.2345,64.9,84,100,5.82
326,Arivonimamo,MG,-19.0167,47.1833,60.85,49,51,12.84
327,Champerico,GT,14.3,-91.9167,80.73,81,100,4.0
328,Rikitea,PF,-23.1203,-134.9692,73.94,71,3,16.82
329,Lompoc,US,34.6391,-120.4579,58.41,90,2,4.97
330,Albina,SR,5.5,-54.05,71.8,99,12,2.57
331,Zhuhai,CN,22.2769,113.5678,92.71,74,40,2.3
332,Chuy,UY,-33.6971,-53.4616,58.96,88,92,2.37
333,Lucapa,AO,-8.4192,20.7447,79.68,45,17,5.21
334,Vaini,TO,-21.2,-175.2,70.92,58,27,10.71
335,Yellowknife,CA,62.456,-114.3525,39.29,99,20,5.75
336,Sinnamary,GF,5.3833,-52.95,78.67,84,66,7.85
337,East London,ZA,-33.0153,27.9116,67.39,63,56,9.71
338,Tongzi,CN,28.7829,105.0877,91.62,48,26,4.83
339,Auki,SB,-8.7676,160.7034,81.59,77,23,3.04
340,Arraial Do Cabo,BR,-22.9661,-42.0278,70.47,83,82,25.52
341,Punta Arenas,CL,-53.15,-70.9167,33.91,86,40,8.05
342,Kodiak,US,57.79,-152.4072,37.53,81,17,7.47
343,Nador,MA,35.174,-2.9287,62.85,88,0,2.3
344,Kamyshin,RU,50.0983,45.416,57.49,56,96,16.96
345,Hit,IQ,33.6416,42.8251,84.27,15,0,14.85
346,Hermanus,ZA,-34.4187,19.2345,64.9,84,100,5.82
347,Hobart,AU,-42.8794,147.3294,57.11,54,40,9.22
348,Ushuaia,AR,-54.8,-68.3,31.98,87,32,2.64
349,Salinopolis,BR,-0.6136,-47.3561,78.22,82,100,10.11
350,Jamestown,US,42.097,-79.2353,53.08,96,75,1.01
351,Castro,BR,-24.7911,-50.0119,55.47,97,12,4.29
352,Atuona,PF,-9.8,-139.0333,78.12,75,46,19.19
353,Carnarvon,AU,-24.8667,113.6333,69.21,56,0,14.14
354,Norman Wells,CA,65.282,-126.8329,30.33,91,75,11.05
355,Eckernforde,DE,54.4667,9.8333,60.85,95,100,7.45
356,Russell,US,32.3502,-85.1999,61.83,93,1,0.0
357,Port Blair,IN,11.6667,92.75,80.96,82,100,10.29
358,Rikitea,PF,-23.1203,-134.9692,73.94,71,3,16.82
359,Vestmanna,FO,62.1564,-7.1664,52.72,100,75,25.32
360,Busselton,AU,-33.65,115.3333,61.05,75,61,12.5
361,East London,ZA,-33.0153,27.9116,67.39,63,56,9.71
362,Great Yarmouth,GB,52.6083,1.7305,61.45,95,100,7.52
363,Wanning,CN,18.8003,110.3967,84.47,74,7,6.93
364,Rikitea,PF,-23.1203,-134.9692,73.94,71,3,16.82
365,Hasaki,JP,35.7333,140.8333,68.4,59,100,11.65
366,Rikitea,PF,-23.1203,-134.9692,73.94,71,3,16.82
367,Saskylakh,RU,71.9167,114.0833,33.66,94,100,16.2
368,Laurel,US,39.0993,-76.8483,64.53,85,40,1.01
369,Bilibino,RU,68.0546,166.4372,28.11,98,100,6.85
370,Cidreira,BR,-30.1811,-50.2056,61.86,93,15,7.47
371,Huarmey,PE,-10.0681,-78.1522,62.76,89,99,6.31
372,Krasnyy Chikoy,RU,50.3643,108.7512,40.78,81,100,8.34
373,Port Hedland,AU,-20.3167,118.5667,89.65,25,0,24.16
374,Albany,US,42.6001,-73.9662,59.59,91,77,7.05
375,Pimenta Bueno,BR,-11.6725,-61.1936,77.43,67,9,3.0
376,Sambava,MG,-14.2667,50.1667,74.59,78,66,15.82
377,Washougal,US,45.5826,-122.3534,64.56,77,1,0.0
378,Kavieng,PG,-2.5744,150.7967,83.14,78,72,11.63
379,Souillac,MU,-20.5167,57.5167,76.35,70,13,18.21
380,Faanui,PF,-16.4833,-151.75,79.68,74,39,11.23
381,Karratha,AU,-20.7377,116.8463,85.51,30,0,21.52
382,Butaritari,KI,3.0707,172.7902,82.69,77,25,12.48
383,Castro,BR,-24.7911,-50.0119,55.47,97,12,4.29
384,Kargopol,RU,61.5071,38.9456,44.51,96,100,6.15
385,Cape Town,ZA,-33.9258,18.4232,65.12,89,75,1.99
386,Zittau,DE,50.9,14.8333,62.53,90,49,5.37
387,Ushuaia,AR,-54.8,-68.3,31.98,87,32,2.64
388,Butaritari,KI,3.0707,172.7902,82.69,77,25,12.48
389,Hobart,AU,-42.8794,147.3294,57.11,54,40,9.22
390,Luderitz,NA,-26.6481,15.1594,67.44,47,7,14.05
391,Port Lincoln,AU,-34.7333,135.8667,58.6,59,43,12.95
392,Cabo San Lucas,MX,22.8909,-109.9124,85.51,81,2,4.0
393,Khani,GE,41.9563,42.9566,51.37,91,99,1.5
394,Lompoc,US,34.6391,-120.4579,58.41,90,2,4.97
395,Hermanus,ZA,-34.4187,19.2345,65.89,84,100,5.82
396,Lannion,FR,48.75,-3.4167,61.34,94,90,8.05
397,Bluff,NZ,-46.6,168.3333,42.8,60,99,11.16
398,Sawtell,AU,-30.3833,153.1,60.82,82,75,18.41
399,Verdun,FR,49.25,5.3333,64.2,94,40,8.93
400,Atakpame,TG,7.5333,1.1333,72.0,91,100,2.06
401,Tura,IN,25.5198,90.2201,90.41,61,15,2.46
402,Phan Thiet,VN,10.9333,108.1,84.07,76,42,11.79
403,Punta Arenas,CL,-53.15,-70.9167,33.91,86,40,8.05
404,Faya,SA,18.3851,42.4509,77.11,17,3,9.57
405,Mackenzie,CA,55.2999,-123.1698,49.71,99,100,2.48
406,Mataura,NZ,-46.1927,168.8643,42.48,91,91,1.61
407,Korla,CN,41.7597,86.1469,73.0,16,0,9.57
408,Atuona,PF,-9.8,-139.0333,78.12,75,46,19.19
409,Souillac,MU,-20.5167,57.5167,76.35,70,13,18.21
410,Nikolskoye,RU,59.7035,30.7861,49.87,88,100,9.19
411,Gweta,BW,-20.1833,25.2333,78.08,19,0,14.16
412,Ushuaia,AR,-54.8,-68.3,31.98,87,32,2.64
413,Guerrero Negro,MX,27.9769,-114.0611,69.75,76,38,13.18
414,Los Llanos De Aridane,ES,28.6585,-17.9182,65.95,76,75,6.91
415,Punta Arenas,CL,-53.15,-70.9167,33.91,86,40,8.05
416,Cidreira,BR,-30.1811,-50.2056,61.86,93,15,7.47
417,Tasiilaq,GL,65.6145,-37.6368,26.73,57,100,3.83
418,Canmore,CA,51.0834,-115.3521,53.4,100,100,5.17
419,Georgetown,MY,5.4112,100.3354,82.33,78,40,5.75
420,Norman Wells,CA,65.282,-126.8329,30.33,91,75,11.05
421,Chuy,UY,-33.6971,-53.4616,58.96,88,92,2.37
422,Stephenville,US,32.2207,-98.2023,68.92,61,1,0.0
423,Aranos,NA,-24.1333,19.1167,79.97,13,0,11.56
424,Ayr,GB,55.4627,-4.6339,63.1,82,20,10.36
425,Saint George,US,37.1041,-113.5841,79.95,33,94,1.99
426,Didao,CN,45.3667,130.8,67.5,64,93,1.5
427,Ushuaia,AR,-54.8,-68.3,31.98,87,32,2.64
428,Iracoubo,GF,5.4802,-53.2011,77.86,86,41,7.54
429,Saint-Philippe,RE,-21.3585,55.7679,79.21,80,47,14.9
430,College,US,64.8569,-147.8028,33.75,91,75,0.0
431,Yellowknife,CA,62.456,-114.3525,39.29,98,100,10.33
432,Chokurdakh,RU,70.6333,147.9167,32.92,98,100,15.9
433,Carnarvon,AU,-24.8667,113.6333,69.21,56,0,14.14
434,Broken Hill,AU,-31.95,141.4333,64.11,22,1,12.66
435,Qaanaaq,GL,77.484,-69.3632,16.38,71,25,7.65
436,Katsuura,JP,35.1333,140.3,72.1,67,100,14.09
437,Klaksvik,FO,62.2266,-6.589,54.52,92,100,31.07
438,Ushuaia,AR,-54.8,-68.3,31.98,87,32,2.64
439,Rikitea,PF,-23.1203,-134.9692,73.94,71,3,16.82
440,Severo-Kurilsk,RU,50.6789,156.125,47.93,87,5,11.07
441,Rudbar,AF,30.15,62.6,95.7,7,0,5.37
442,Saint Anthony,US,45.0205,-93.218,58.14,58,1,4.0
443,Upernavik,GL,72.7868,-56.1549,19.35,62,0,4.92
444,Sisimiut,GL,66.9395,-53.6735,25.81,65,0,11.65
445,Luderitz,NA,-26.6481,15.1594,67.44,47,7,14.05
446,Rikitea,PF,-23.1203,-134.9692,73.94,71,3,16.82
447,Preobrazheniye,RU,42.9019,133.9064,64.87,77,58,5.95
448,Kavieng,PG,-2.5744,150.7967,83.14,78,72,11.63
449,Punta Arenas,CL,-53.15,-70.9167,33.91,86,40,8.05
450,Rikitea,PF,-23.1203,-134.9692,73.94,71,3,16.82
451,Airai,TL,-8.9266,125.4092,71.69,54,95,2.64
452,Kuito,AO,-12.3833,16.9333,76.35,20,2,4.07
453,Nikolskoye,RU,59.7035,30.7861,49.87,88,100,9.19
454,Bilibino,RU,68.0546,166.4372,28.11,98,100,6.85
455,Butaritari,KI,3.0707,172.7902,82.69,77,25,12.48
456,Avarua,CK,-21.2078,-159.775,71.65,88,90,1.14
457,Bianzhuang,CN,34.8486,118.0447,76.71,79,100,3.85
458,Ushuaia,AR,-54.8,-68.3,31.98,87,32,2.64
459,Santa Maria,BR,-29.6842,-53.8069,53.02,96,0,4.05
460,Hofn,IS,64.2539,-15.2082,40.91,88,100,15.05
461,Kaitangata,NZ,-46.2817,169.8464,40.98,74,99,6.15
462,Bluff,NZ,-46.6,168.3333,42.8,60,99,11.16
463,Qaanaaq,GL,77.484,-69.3632,16.38,71,25,7.65
464,Rikitea,PF,-23.1203,-134.9692,73.94,71,3,16.82
465,Ushuaia,AR,-54.8,-68.3,31.98,87,32,2.64
466,Pevek,RU,69.7008,170.3133,29.61,96,100,11.83
467,Charlestown,AU,-32.95,151.6667,59.83,84,100,1.99
468,Mataura,NZ,-46.1927,168.8643,42.48,91,91,1.61
469,Padang,ID,-0.9492,100.3543,86.05,80,100,3.36
470,Puerto Ayora,EC,-0.7393,-90.3518,68.79,89,93,7.34
471,Talnakh,RU,69.4865,88.3972,40.62,43,51,1.99
472,Pevek,RU,69.7008,170.3133,29.61,96,100,11.83
473,Cape Town,ZA,-33.9258,18.4232,65.12,89,75,1.99
474,Rawson,AR,-43.3002,-65.1023,48.27,54,6,21.45
475,Hilo,US,19.7297,-155.09,79.29,88,75,4.61
476,Rikitea,PF,-23.1203,-134.9692,73.94,71,3,16.82
477,Punta Arenas,CL,-53.15,-70.9167,33.91,86,40,8.05
478,Mataura,NZ,-46.1927,168.8643,42.48,91,91,1.61
479,Kulhudhuffushi,MV,6.6221,73.07,77.43,93,100,31.99
480,Dunedin,NZ,-45.8742,170.5036,41.81,74,98,1.01
481,Sitka,US,57.0531,-135.33,46.29,87,75,0.0
482,Tocopilla,CL,-22.092,-70.1979,60.89,71,37,1.83
483,Hobart,AU,-42.8794,147.3294,57.11,54,40,9.22
484,Kodiak,US,57.79,-152.4072,37.53,81,17,7.47
485,Cabo San Lucas,MX,22.8909,-109.9124,85.51,81,2,4.0
486,Bredasdorp,ZA,-34.5322,20.0403,59.29,82,100,4.5
487,Rikitea,PF,-23.1203,-134.9692,73.94,71,3,16.82
488,Hovd,MN,48.0056,91.6419,57.22,13,15,8.21
489,Bluff,NZ,-46.6,168.3333,42.8,60,99,11.16
490,Albany,US,42.6001,-73.9662,59.59,90,77,7.05
491,Rikitea,PF,-23.1203,-134.9692,73.94,71,3,16.82
492,Albany,US,42.6001,-73.9662,59.59,90,77,7.05
493,Carnarvon,AU,-24.8667,113.6333,69.21,56,0,14.14
494,Punta Arenas,CL,-53.15,-70.9167,33.91,86,40,8.05
495,Liuhe,CN,42.2401,125.7172,73.38,61,52,1.59
496,Cherskiy,RU,68.75,161.3,32.11,90,100,10.74
497,Kenai,US,60.5544,-151.2583,38.14,93,1,3.44
498,Ushuaia,AR,-54.8,-68.3,31.98,87,32,2.64
499,Ulladulla,AU,-35.35,150.4667,58.87,61,62,5.79
500,Plettenberg Bay,ZA,-34.0527,23.3716,64.31,72,96,3.36
501,Salalah,OM,17.0151,54.0924,86.09,74,20,10.36
502,Bluff,NZ,-46.6,168.3333,42.8,60,99,11.16
503,Piacabucu,BR,-10.4056,-36.4344,73.18,89,29,7.56
504,Rio Gallegos,AR,-51.6226,-69.2181,36.25,68,3,16.35
505,Punta Arenas,CL,-53.15,-70.9167,33.91,86,40,8.05
506,Pevek,RU,69.7008,170.3133,29.61,96,100,11.83
507,Jacareacanga,BR,-6.2222,-57.7528,69.3,93,17,1.3
508,Hilo,US,19.7297,-155.09,79.29,88,75,4.61
509,Bluff,NZ,-46.6,168.3333,42.8,60,99,11.16
510,Tasiilaq,GL,65.6145,-37.6368,39.36,57,100,3.83
511,Sitka,US,57.0531,-135.33,46.29,87,75,0.0
512,Rikitea,PF,-23.1203,-134.9692,73.94,71,3,16.82
513,Victoria,HK,22.2855,114.1577,92.97,72,25,1.01
514,Port Elizabeth,ZA,-33.918,25.5701,68.09,71,67,8.39
515,Nikolskoye,RU,59.7035,30.7861,49.87,88,100,9.19
516,Kaffrine,SN,14.1059,-15.5508,77.05,90,100,5.26
517,Vila Velha,BR,-20.3297,-40.2925,67.95,83,20,5.75
518,Kahului,US,20.8947,-156.47,79.84,80,1,5.75
519,Ushuaia,AR,-54.8,-68.3,31.98,87,32,2.64
520,Rikitea,PF,-23.1203,-134.9692,73.94,71,3,16.82
521,Halifax,CA,44.6453,-63.5724,67.89,95,100,3.0
522,Rikitea,PF,-23.1203,-134.9692,73.94,71,3,16.82
523,Helena,US,46.5927,-112.0361,61.41,44,1,1.99
524,Chalon-Sur-Saone,FR,46.7833,4.85,61.2,94,98,3.83
525,Puerto Ayora,EC,-0.7393,-90.3518,68.79,89,93,7.34
526,Santa Ines,BR,-3.6667,-45.38,73.08,94,100,2.57
527,Rikitea,PF,-23.1203,-134.9692,73.94,71,3,16.82
528,Kursumlija,RS,43.1458,21.2686,59.02,46,0,2.71
529,Butaritari,KI,3.0707,172.7902,82.69,77,25,12.48
530,Jamestown,US,42.097,-79.2353,52.18,93,90,1.99
531,Rikitea,PF,-23.1203,-134.9692,73.94,71,3,16.82
532,Dikson,RU,73.5069,80.5464,36.0,84,100,20.04
533,Torbay,CA,47.6666,-52.7314,47.26,90,98,1.99
534,Albany,US,42.6001,-73.9662,59.59,90,77,7.05
535,Atuona,PF,-9.8,-139.0333,78.12,75,46,19.19
536,Mahebourg,MU,-20.4081,57.7,77.25,72,7,17.9
537,Punta Arenas,CL,-53.15,-70.9167,33.91,86,40,8.05
538,Kapaa,US,22.0752,-159.319,78.78,82,90,3.0
539,Ambilobe,MG,-13.2,49.05,90.84,30,6,7.61
540,Asau,RO,46.4333,26.4,65.95,55,0,1.95
541,Luderitz,NA,-26.6481,15.1594,67.44,47,7,14.05
542,Beloha,MG,-25.1667,45.05,83.32,30,0,6.29
543,Bethel,US,41.3712,-73.414,61.16,92,20,0.0
544,East London,ZA,-33.0153,27.9116,67.39,63,56,9.71
545,Sura,RU,53.8879,45.7419,49.59,91,100,7.16
546,Nguruka,TZ,-5.1092,31.0419,78.04,38,100,9.8
547,Souillac,MU,-20.5167,57.5167,76.35,70,13,18.21
548,Port Alfred,ZA,-33.5906,26.891,66.38,72,87,8.21
549,Rikitea,PF,-23.1203,-134.9692,73.94,71,3,16.82
550,Thompson,CA,55.7435,-97.8558,43.29,89,100,2.57
551,Castro,BR,-24.7911,-50.0119,55.47,97,12,4.29
552,Hobart,AU,-42.8794,147.3294,57.11,54,40,9.22
553,Barrow,US,71.2906,-156.7887,26.62,86,90,5.75
554,Mapiri,BO,-15.25,-68.1667,69.37,72,77,1.52
555,Breclav,CZ,48.759,16.882,65.07,67,96,3.22
556,Dikson,RU,73.5069,80.5464,36.0,84,100,20.04
557,Dunedin,NZ,-45.8742,170.5036,41.81,74,98,1.01
558,Avarua,CK,-21.2078,-159.775,71.65,88,90,1.14
559,Vaini,TO,-21.2,-175.2,70.92,58,27,10.71
560,Mackay,AU,-21.15,149.2,76.05,66,0,10.4
561,Vardo,NO,70.3705,31.1107,46.85,86,99,4.09
562,Longyearbyen,SJ,78.2186,15.6401,37.24,93,75,4.61
563,Batticaloa,LK,7.7102,81.6924,90.57,53,100,2.39
564,Sangar,RU,63.9242,127.4739,42.66,75,25,1.03
565,Shimoda,JP,34.6667,138.95,63.1,86,100,11.41
566,Kruisfontein,ZA,-34.0033,24.7314,65.88,65,100,7.94
567,Kamina,CD,-8.7386,24.9906,85.32,31,10,2.93
568,Jamestown,US,42.097,-79.2353,52.18,93,90,1.99
569,Westport,US,41.1415,-73.3579,65.75,89,1,1.99
570,Kalmunai,LK,7.4167,81.8167,91.56,50,99,4.0
571,Bilma,NE,18.6853,12.9164,85.32,21,0,15.77
572,Rikitea,PF,-23.1203,-134.9692,73.94,71,3,16.82
573,Cidreira,BR,-30.1811,-50.2056,61.86,93,15,7.47
574,Ugoofaaru,MV,5.6667,73.0,78.06,87,100,26.75
575,Mataura,NZ,-46.1927,168.8643,42.48,91,91,1.61
576,Valparaiso,CL,-33.0393,-71.6273,55.47,77,0,3.44
577,Cape Town,ZA,-33.9258,18.4232,66.11,87,75,1.01
578,Nanzhang,CN,31.7765,111.8386,70.09,90,100,7.47
579,Biryusinsk,RU,55.9634,97.8235,50.22,41,32,5.99
580,Busselton,AU,-33.65,115.3333,62.04,75,61,12.5
581,La Playona,HN,15.1167,-88.9833,72.09,98,100,0.74
582,Mariental,NA,-24.6333,17.9667,79.68,12,2,11.21
583,Norman Wells,CA,65.282,-126.8329,30.33,91,75,11.05
584,Rikitea,PF,-23.1203,-134.9692,73.94,71,3,16.82
585,Lerwick,GB,60.1545,-1.1494,55.4,95,58,19.93
586,Margate,GB,51.3813,1.3862,62.96,95,85,9.98
587,Qaanaaq,GL,77.484,-69.3632,16.38,71,25,7.65
588,Nikolskoye,RU,59.7035,30.7861,49.87,88,100,9.19
589,Khani,GE,41.9563,42.9566,51.37,91,99,1.5
590,Qaqortoq,GL,60.7167,-46.0333,32.5,51,11,8.55
591,Cape Town,ZA,-33.9258,18.4232,66.11,87,75,1.01
592,Nizhniy Kuranakh,RU,58.8353,125.4869,50.79,57,100,7.61
593,Puteyets,RU,65.1716,57.091,44.6,52,100,11.97
594,Bilibino,RU,68.0546,166.4372,28.11,98,100,6.85
595,Faanui,PF,-16.4833,-151.75,79.68,74,39,11.23
596,Hobart,AU,-42.8794,147.3294,57.11,54,40,9.22
597,Puerto Ayora,EC,-0.7393,-90.3518,68.79,89,93,7.34
598,Saldanha,ZA,-33.0117,17.9442,60.78,89,37,12.01
599,Fort Nelson,CA,58.8053,-122.7002,45.45,66,100,1.32
600,Bredasdorp,ZA,-34.5322,20.0403,59.29,82,100,4.5
601,Upernavik,GL,72.7868,-56.1549,19.35,62,0,4.92
602,Sulangan,PH,11.1373,123.7228,84.15,71,100,4.27
603,Cidreira,BR,-30.1811,-50.2056,61.86,93,15,7.47
604,Hofn,IS,64.2539,-15.2082,40.91,88,100,15.05
605,Tuktoyaktuk,CA,69.4541,-133.0374,33.6,97,100,13.65
606,Emerald,AU,-23.5333,148.1667,88.34,19,39,5.46
607,Butaritari,KI,3.0707,172.7902,82.69,77,25,12.48
608,Avarua,CK,-21.2078,-159.775,71.65,88,90,1.14
609,Hermanus,ZA,-34.4187,19.2345,65.89,84,100,5.82
610,Busselton,AU,-33.65,115.3333,62.04,75,61,12.5
611,Punta Arenas,CL,-53.15,-70.9167,32.11,93,40,5.75
612,Mataura,NZ,-46.1927,168.8643,42.48,91,91,1.61
613,Bredasdorp,ZA,-34.5322,20.0403,59.29,82,100,4.5
614,Vaini,TO,-21.2,-175.2,69.96,88,75,4.61
615,Punta Arenas,CL,-53.15,-70.9167,32.11,93,40,5.75
616,Meulaboh,ID,4.1363,96.1285,80.82,83,99,11.39
617,Beringovskiy,RU,63.05,179.3167,36.84,59,65,7.99
618,Atuona,PF,-9.8,-139.0333,78.12,75,46,19.19
619,Yerbogachen,RU,61.2767,108.0108,43.03,50,100,15.9
620,Adwa,ET,14.1646,38.8955,73.53,41,1,5.57
621,Hithadhoo,MV,-0.6,73.0833,82.49,76,100,14.76
622,Margate,GB,51.3813,1.3862,62.96,95,85,9.98
623,Ushuaia,AR,-54.8,-68.3,35.26,75,20,6.91
624,Ushuaia,AR,-54.8,-68.3,35.26,75,20,6.91
625,Hermanus,ZA,-34.4187,19.2345,65.89,84,100,5.82
626,Severiano Melo,BR,-5.7772,-37.9578,75.72,69,19,11.32
627,Kruisfontein,ZA,-34.0033,24.7314,65.88,65,100,7.94
628,Khatanga,RU,71.9667,102.5,37.08,72,100,12.28
629,Chumphon,TH,10.3333,98.8333,71.42,98,100,2.64
630,Hasaki,JP,35.7333,140.8333,68.4,59,100,11.65
631,Vaini,TO,-21.2,-175.2,69.96,88,75,4.61
632,Flin Flon,CA,54.7682,-101.865,46.11,91,100,2.21
633,Rikitea,PF,-23.1203,-134.9692,73.94,71,3,16.82
634,Uvat,RU,59.1433,68.8953,43.27,54,8,6.67
635,Rikitea,PF,-23.1203,-134.9692,73.94,71,3,16.82
636,Buncrana,IE,55.1333,-7.45,59.4,86,100,15.64
637,Dikson,RU,73.5069,80.5464,36.0,84,100,20.04
638,Rio Gallegos,AR,-51.6226,-69.2181,36.25,68,3,16.35
639,Roura,GF,4.7263,-52.3274,78.96,100,20,0.0
640,Hambantota,LK,6.1241,81.1185,87.64,65,96,24.67
641,Pevek,RU,69.7008,170.3133,29.61,96,100,11.83
642,Nekhayevskiy,RU,50.4106,41.7561,52.7,89,100,15.19
643,Busselton,AU,-33.65,115.3333,62.04,75,61,12.5
644,Cherskiy,RU,68.75,161.3,32.11,90,100,10.74
645,Leningradskiy,RU,69.3833,178.4167,27.79,90,100,6.98
646,Tiksi,RU,71.6872,128.8694,34.74,88,100,21.85
647,Tevaitoa,PF,-16.7833,-151.5,79.5,74,12,10.0
648,Ushuaia,AR,-54.8,-68.3,35.26,75,20,6.91
649,Albany,US,42.6001,-73.9662,59.59,90,77,7.05
650,Fereydunshahr,IR,32.941,50.121,68.49,8,0,2.55
651,Butaritari,KI,3.0707,172.7902,82.69,77,25,12.48
652,Barrow,US,71.2906,-156.7887,26.62,86,90,5.75
653,Bluff,NZ,-46.6,168.3333,42.8,60,99,11.16
654,Toora-Khem,RU,52.4675,96.11,46.31,34,100,1.07
655,Rikitea,PF,-23.1203,-134.9692,73.94,71,3,16.82
656,Kavieng,PG,-2.5744,150.7967,83.14,78,72,11.63
657,Jamestown,US,42.097,-79.2353,52.18,93,90,1.99
658,Vila Franca Do Campo,PT,37.7167,-25.4333,72.19,90,100,7.65
659,Bosobolo,CD,4.1833,19.9,76.71,75,90,1.54
660,Atuona,PF,-9.8,-139.0333,78.12,75,46,19.19
661,Mataura,NZ,-46.1927,168.8643,42.48,91,91,1.61
662,Kapuskasing,CA,49.4169,-82.4331,44.69,95,100,3.38
663,San Patricio,US,28.017,-97.5169,77.83,62,98,4.99
664,Meridian,US,43.6121,-116.3915,70.09,43,1,1.99
665,Carnarvon,AU,-24.8667,113.6333,73.47,43,0,13.8
666,Constitucion,CL,-35.3333,-72.4167,48.47,90,11,7.96
667,Puerto Ayora,EC,-0.7393,-90.3518,68.79,89,93,7.34
668,Punta Arenas,CL,-53.15,-70.9167,32.11,93,40,5.75
669,Castro,BR,-24.7911,-50.0119,55.47,97,12,4.29
670,Cockburn Town,TC,21.4612,-71.1419,82.47,73,4,5.23
671,Bredasdorp,ZA,-34.5322,20.0403,59.29,82,100,4.5
672,Cherskiy,RU,68.75,161.3,32.11,90,100,10.74
673,Vaini,TO,-21.2,-175.2,69.96,88,75,4.61
674,Avarua,CK,-21.2078,-159.775,71.65,88,90,1.14
675,Albany,US,42.6001,-73.9662,59.59,90,77,7.05
676,Barrow,US,71.2906,-156.7887,26.62,86,90,5.75
677,Itoman,JP,26.1247,127.6694,89.62,73,40,13.8
678,Mataura,NZ,-46.1927,168.8643,42.48,91,91,1.61
679,Izhevskoye,RU,54.5567,40.8703,52.3,80,67,11.25
680,Barrow,US,71.2906,-156.7887,26.62,86,90,5.75
681,Carnarvon,AU,-24.8667,113.6333,73.47,43,0,13.8
682,Kapaa,US,22.0752,-159.319,78.78,82,90,3.0
683,Saldanha,ZA,-33.0117,17.9442,60.78,89,37,12.01
684,Kapaa,US,22.0752,-159.319,78.78,82,90,3.0
685,Atar,MR,20.5169,-13.0499,88.47,27,24,4.68
686,Busselton,AU,-33.65,115.3333,62.04,75,61,12.5
687,Hilo,US,19.7297,-155.09,79.29,88,75,6.91
688,Arrifes,PT,37.7667,-25.7,70.23,94,75,13.8
689,San Patricio,US,28.017,-97.5169,77.83,62,98,4.99
690,Mataura,NZ,-46.1927,168.8643,42.48,91,91,1.61
691,Beringovskiy,RU,63.05,179.3167,36.84,59,65,7.99
692,Ushuaia,AR,-54.8,-68.3,35.26,75,20,6.91
693,Hilo,US,19.7297,-155.09,79.29,88,75,6.91
694,Atuona,PF,-9.8,-139.0333,78.12,75,46,19.19
695,Mar Del Plata,AR,-38.0023,-57.5575,56.12,47,2,11.01
696,Barrow,US,71.2906,-156.7887,26.62,86,90,5.75
697,Rikitea,PF,-23.1203,-134.9692,73.94,71,3,16.82
698,Kapaa,US,22.0752,-159.319,78.78,82,90,3.0
699,East London,ZA,-33.0153,27.9116,68.94,68,20,10.36
700,Punta Arenas,CL,-53.15,-70.9167,32.11,93,40,5.75
701,Hobart,AU,-42.8794,147.3294,57.11,57,20,8.05
702,Shwebo,MM,22.5667,95.7,91.67,55,23,5.14
703,Faanui,PF,-16.4833,-151.75,79.68,74,39,11.23
704,Victoria,HK,22.2855,114.1577,92.97,72,25,1.99
705,Tuatapere,NZ,-46.1333,167.6833,41.83,75,35,5.1
706,Cidreira,BR,-30.1811,-50.2056,61.86,93,15,7.47
707,Kattivakkam,IN,13.2167,80.3167,87.89,60,100,4.41
708,Carnarvon,AU,-24.8667,113.6333,73.47,43,0,13.8
709,Bluff,NZ,-46.6,168.3333,42.8,60,99,11.16
710,Vaini,TO,-21.2,-175.2,69.96,88,75,4.61
711,Bairiki,KI,1.3292,172.9752,82.4,78,20,8.05
712,Lagoa,PT,39.05,-27.9833,69.69,83,6,12.48
713,Nanortalik,GL,60.1432,-45.2371,37.26,71,10,6.53
714,Bluff,NZ,-46.6,168.3333,42.8,60,99,11.16
715,Manta,EC,-0.95,-80.7333,73.18,83,90,9.22
716,Tuktoyaktuk,CA,69.4541,-133.0374,33.6,97,100,13.65
717,Nambucca Heads,AU,-30.65,153.0,60.8,80,100,12.12
718,Westport,US,41.1415,-73.3579,65.75,89,1,1.99
719,Rosarito,MX,32.3333,-117.0333,68.07,83,82,6.33
720,Lorengau,PG,-2.0226,147.2712,83.91,73,100,6.4
721,Punta Arenas,CL,-53.15,-70.9167,32.11,93,40,5.75
722,Half Moon Bay,US,37.4636,-122.4286,61.81,85,90,0.0
723,Punta Arenas,CL,-53.15,-70.9167,32.11,93,40,5.75
724,San Cristobal,VE,7.7669,-72.225,63.72,96,39,2.8
725,Mataura,NZ,-46.1927,168.8643,42.48,91,91,1.61
726,Atar,MR,20.5169,-13.0499,88.47,27,24,4.68
727,Atuona,PF,-9.8,-139.0333,78.12,75,46,19.19
728,Sorong,ID,-0.8833,131.25,83.16,75,100,2.71
729,Avera,US,33.194,-82.5271,63.72,77,0,4.76
730,Punta Arenas,CL,-53.15,-70.9167,32.11,93,40,5.75
731,Mataura,NZ,-46.1927,168.8643,42.48,91,91,1.61
732,Georgetown,MY,5.4112,100.3354,87.75,72,20,10.36
733,Jamestown,US,42.097,-79.2353,52.18,93,90,1.99
734,Marica,BR,-22.9194,-42.8186,70.86,89,10,4.92
735,Grindavik,IS,63.8424,-22.4338,42.75,81,90,26.46
736,Jalor,IN,25.35,72.6167,93.38,45,15,3.4
737,Kysyl-Syr,RU,63.8986,122.7617,44.46,52,36,8.79
738,Punta Arenas,CL,-53.15,-70.9167,32.11,93,40,5.75
739,Tianpeng,CN,30.9866,103.9393,73.87,93,100,4.27
740,Severo-Kurilsk,RU,50.6789,156.125,47.93,87,5,11.07
741,Krasnoselkup,RU,65.7,82.4667,42.94,54,11,11.74
742,Ingham,US,42.6,-84.3833,51.75,82,40,0.0
743,Saint-Pierre,RE,-21.3393,55.4781,79.29,65,0,29.93
744,Butaritari,KI,3.0707,172.7902,82.69,77,25,12.48
745,Busselton,AU,-33.65,115.3333,62.04,75,61,12.5
746,Torbay,CA,47.6666,-52.7314,47.26,90,98,1.99
747,Aykhal,RU,66.0,111.5,39.04,50,7,15.3
748,Camargo,MX,27.6667,-105.1667,71.24,59,100,10.38
749,Cape Town,ZA,-33.9258,18.4232,66.11,87,75,1.01
750,Ilulissat,GL,69.2167,-51.1,17.62,62,0,4.61
751,Port-Cartier,CA,50.0334,-66.8654,53.82,97,100,5.99
752,Inongo,CD,-1.95,18.2667,71.28,86,81,3.69
753,Ushuaia,AR,-54.8,-68.3,35.26,75,20,6.91
754,Victoria,HK,22.2855,114.1577,92.97,72,25,1.99
755,Faanui,PF,-16.4833,-151.75,79.68,74,39,11.23
756,Hofn,IS,64.2539,-15.2082,40.91,88,100,15.05
757,Saldanha,ZA,-33.0117,17.9442,60.78,89,37,12.01
758,Dunedin,NZ,-45.8742,170.5036,41.81,75,98,8.5
759,Ushuaia,AR,-54.8,-68.3,35.26,75,20,6.91
760,San Angelo,US,31.4638,-100.437,66.54,57,1,3.0
761,Kavaratti,IN,10.5669,72.642,81.43,80,76,15.3
762,Antsohihy,MG,-14.8796,47.9875,88.39,35,100,14.67
763,Vanimo,PG,-2.6741,141.3028,84.16,72,100,8.23
764,Tasiilaq,GL,65.6145,-37.6368,39.36,57,100,3.83
765,Busselton,AU,-33.65,115.3333,62.04,75,61,12.5
766,East London,ZA,-33.0153,27.9116,68.94,68,20,10.36
767,Half Moon Bay,US,37.4636,-122.4286,61.81,85,90,0.0
768,Severo-Kurilsk,RU,50.6789,156.125,47.93,87,5,11.07
769,Avarua,CK,-21.2078,-159.775,71.65,88,75,1.14
770,Bluff,NZ,-46.6,168.3333,42.8,60,99,11.16
771,Barrow,US,71.2906,-156.7887,26.62,86,90,5.75
772,Quatre Cocos,MU,-20.2078,57.7625,77.11,71,2,17.67
773,Atuona,PF,-9.8,-139.0333,78.12,75,46,19.19
774,Mar Del Plata,AR,-38.0023,-57.5575,56.12,47,2,11.01
775,Vaini,TO,-21.2,-175.2,69.96,88,75,4.61
776,Champerico,GT,14.3,-91.9167,80.73,81,100,4.0
777,Norman Wells,CA,65.282,-126.8329,32.04,93,75,9.22
778,Datong,CN,40.0936,113.2914,64.22,62,100,7.34
779,Jamestown,US,42.097,-79.2353,52.18,93,90,1.99
780,Padang,ID,-0.9492,100.3543,84.25,80,100,3.36
781,Karatau,KZ,43.1667,70.4667,84.36,9,0,6.53
782,Saskylakh,RU,71.9167,114.0833,33.66,94,100,16.2
783,Manavalakurichi,IN,8.1333,77.3,86.09,65,100,16.6
784,Port Alfred,ZA,-33.5906,26.891,66.38,72,87,8.21
785,Nikolskoye,RU,59.7035,30.7861,49.89,88,100,9.19
786,Butaritari,KI,3.0707,172.7902,82.69,77,25,12.48
787,East London,ZA,-33.0153,27.9116,68.94,68,20,10.36
788,Hobart,AU,-42.8794,147.3294,57.11,57,20,8.05
789,Terrace,CA,54.5163,-128.6035,53.51,100,90,6.91
790,Galle,LK,6.0367,80.217,82.38,82,100,17.25
791,Nikolskoye,RU,59.7035,30.7861,49.89,88,100,9.19
792,Ponta Do Sol,PT,32.6667,-17.1,69.71,70,100,2.51
793,Torbay,CA,47.6666,-52.7314,47.26,90,98,1.99
794,Pokrovka,KG,42.3414,78.0056,66.16,27,0,6.15
795,Dingle,PH,10.9995,122.6711,86.59,71,51,4.97
796,Banepa,NP,27.6298,85.5214,82.72,58,40,3.44
797,Fortuna,US,40.5982,-124.1573,59.41,70,90,0.0
798,Avarua,CK,-21.2078,-159.775,71.65,88,75,1.14
799,Busselton,AU,-33.65,115.3333,62.04,75,61,12.5
800,Vaini,TO,-21.2,-175.2,69.96,88,75,4.61
801,El Playon,CO,7.4713,-73.2031,69.33,89,94,5.95
802,Bell Ville,AR,-32.6259,-62.6887,55.67,69,6,8.79
803,East London,ZA,-33.0153,27.9116,68.94,68,20,10.36
804,Anloga,GH,5.7947,0.8973,77.52,81,100,6.2
805,High Level,CA,58.5169,-117.136,32.11,93,1,0.0
806,Saldanha,ZA,-33.0117,17.9442,60.78,89,37,12.01
807,Dharchula,IN,29.85,80.5333,82.06,62,14,6.06
808,Abalak,RU,58.1286,68.5944,43.25,48,10,8.77
809,East London,ZA,-33.0153,27.9116,68.94,68,20,10.36
810,Kruisfontein,ZA,-34.0033,24.7314,65.88,65,100,7.94
811,Broken Hill,AU,-31.95,141.4333,64.42,25,1,10.38
812,Kapaa,US,22.0752,-159.319,78.78,84,90,1.99
813,Busselton,AU,-33.65,115.3333,62.04,75,61,12.5
814,Tuktoyaktuk,CA,69.4541,-133.0374,33.6,97,100,13.65
815,Bambous Virieux,MU,-20.3428,57.7575,77.25,65,40,13.8
816,Nianzishan,CN,47.5167,122.8833,62.02,81,100,10.02
817,Jamestown,US,42.097,-79.2353,52.18,94,90,4.0
818,Albany,US,42.6001,-73.9662,60.46,86,77,5.01
819,Meulaboh,ID,4.1363,96.1285,80.82,83,99,11.39
820,Punta Arenas,CL,-53.15,-70.9167,32.11,93,40,5.75
821,Ancud,CL,-41.8697,-73.8203,33.33,77,6,3.24
822,Atuona,PF,-9.8,-139.0333,78.12,75,46,19.19
823,East London,ZA,-33.0153,27.9116,68.94,68,20,10.36
824,Beberibe,BR,-4.1797,-38.1306,82.17,84,68,10.94
825,Rikitea,PF,-23.1203,-134.9692,73.94,71,3,16.82
826,Hilo,US,19.7297,-155.09,79.29,88,75,6.91
827,Kytmanovo,RU,53.4593,85.4479,40.26,67,99,14.85
828,Mataura,NZ,-46.1927,168.8643,42.48,91,91,1.61
829,Zalantun,CN,48.0,122.7167,58.44,90,100,10.63
830,Bambous Virieux,MU,-20.3428,57.7575,77.25,65,40,13.8
831,Upernavik,GL,72.7868,-56.1549,19.35,62,0,4.92
832,Busselton,AU,-33.65,115.3333,62.04,75,61,12.5
833,Puerto Carreno,CO,6.189,-67.4859,74.25,90,98,3.85
834,Wrexham,GB,53.0,-3.0,61.86,93,20,6.44
835,Sao Filipe,CV,14.8961,-24.4956,77.9,75,72,8.97
836,Kapaa,US,22.0752,-159.319,78.78,84,90,1.99
837,Puerto Ayora,EC,-0.7393,-90.3518,68.79,89,93,7.34
838,Avarua,CK,-21.2078,-159.775,71.65,88,75,1.14
839,Ushuaia,AR,-54.8,-68.3,35.26,75,20,6.91
840,Dikson,RU,73.5069,80.5464,36.0,84,100,20.04
841,Puerto Ayora,EC,-0.7393,-90.3518,68.79,89,93,7.34
842,Luderitz,NA,-26.6481,15.1594,67.44,47,7,14.05
843,Arraial Do Cabo,BR,-22.9661,-42.0278,70.47,83,82,25.52
844,Puerto Ayora,EC,-0.7393,-90.3518,68.79,89,93,7.34
845,Punta Arenas,CL,-53.15,-70.9167,32.11,93,40,5.75
846,Yinchuan,CN,38.4681,106.2731,75.99,28,72,5.44
847,New Norfolk,AU,-42.7826,147.0587,56.75,55,18,4.16
848,Nikolskoye,RU,59.7035,30.7861,49.89,88,100,9.19
849,Jacksonville,US,30.3322,-81.6556,69.8,87,1,0.0
850,Nikolskoye,RU,59.7035,30.7861,49.89,88,100,9.19
851,Faanui,PF,-16.4833,-151.75,79.68,74,39,11.23
852,Albany,US,42.6001,-73.9662,60.46,86,77,5.01
853,Avarua,CK,-21.2078,-159.775,71.65,88,75,1.14
854,Kiruna,SE,67.8557,20.2251,32.92,93,75,4.61
855,Bluff,NZ,-46.6,168.3333,42.8,60,99,11.16
856,Mataura,NZ,-46.1927,168.8643,42.48,91,91,1.61
857,Lata,PT,40.1629,-8.3327,60.04,93,94,2.95
858,Clyde River,CA,70.4692,-68.5914,24.24,87,18,4.9
859,Yarada,IN,17.65,83.2667,82.72,94,90,2.3
860,Bredasdorp,ZA,-34.5322,20.0403,59.29,82,100,4.5
861,New Norfolk,AU,-42.7826,147.0587,56.75,55,18,4.16
862,Sur,OM,22.5667,59.5289,94.24,43,8,5.84
863,Bredasdorp,ZA,-34.5322,20.0403,59.29,82,100,4.5
864,Aykhal,RU,66.0,111.5,39.04,50,7,15.3
865,Puerto Ayora,EC,-0.7393,-90.3518,68.79,89,93,7.34
866,San Patricio,US,28.017,-97.5169,77.83,62,98,4.99
867,Ilulissat,GL,69.2167,-51.1,17.62,62,0,4.61
868,Hobart,AU,-42.8794,147.3294,57.11,57,20,8.05
869,Tuktoyaktuk,CA,69.4541,-133.0374,33.6,97,100,13.65
870,Kodinsk,RU,58.6881,99.1844,44.24,58,100,8.03
871,Dallas,US,32.7668,-96.7836,75.49,55,40,3.44
872,Friedrichshafen,DE,47.65,9.4833,69.67,91,0,4.61
873,Taga,RO,46.95,24.05,59.32,64,0,2.59
874,Tazovskiy,RU,67.4667,78.7,40.42,53,0,5.46
875,Busselton,AU,-33.65,115.3333,61.05,75,61,12.5
876,New Norfolk,AU,-42.7826,147.0587,56.75,55,18,4.16
877,Kirakira,SB,-10.4544,161.9205,80.67,84,17,9.98
878,Morant Bay,JM,17.8815,-76.4093,82.02,79,5,5.59
879,Port Alfred,ZA,-33.5906,26.891,66.38,72,87,8.21
880,Punta Arenas,CL,-53.15,-70.9167,32.11,93,40,5.75
881,Diamantino,BR,-14.4086,-56.4461,76.48,54,8,4.45
882,Puerto Ayora,EC,-0.7393,-90.3518,68.79,89,93,7.34
883,Ribeira Grande,PT,38.5167,-28.7,66.6,88,40,0.0
884,Cidreira,BR,-30.1811,-50.2056,61.86,93,15,7.47
885,Mataura,NZ,-46.1927,168.8643,42.48,91,91,1.61
886,Ushuaia,AR,-54.8,-68.3,35.26,75,20,6.91
887,Dunedin,NZ,-45.8742,170.5036,41.81,75,98,8.5
888,Hermanus,ZA,-34.4187,19.2345,64.9,84,100,5.82
889,Sola,VU,-13.8833,167.55,79.02,79,20,16.24
890,Orocue,CO,4.7912,-71.3354,73.0,90,19,4.7
891,Codrington,AU,-38.2667,141.9667,53.26,71,11,12.86
892,Dikson,RU,73.5069,80.5464,36.0,84,100,20.04
893,Port Lincoln,AU,-34.7333,135.8667,58.6,59,43,12.95
894,Busselton,AU,-33.65,115.3333,61.05,75,61,12.5
895,Castro,BR,-24.7911,-50.0119,55.47,97,12,4.29
896,Mataura,NZ,-46.1927,168.8643,42.48,91,91,1.61
897,Oranjestad,AW,12.524,-70.027,84.15,87,20,7.0
898,Hermanus,ZA,-34.4187,19.2345,64.9,84,100,5.82
899,Caxito,AO,-8.5785,13.6643,75.85,67,100,2.37
900,Carnarvon,AU,-24.8667,113.6333,73.47,43,0,13.8
901,Kudahuvadhoo,MV,2.6708,72.8944,81.61,78,100,19.22
902,Meulaboh,ID,4.1363,96.1285,80.82,83,99,11.39
903,Dikson,RU,73.5069,80.5464,36.0,84,100,20.04
904,Prince George,CA,53.9166,-122.753,50.25,99,90,0.0
905,Marawi,PH,7.9986,124.2928,74.64,82,98,3.27
906,Carutapera,BR,-1.195,-46.02,76.48,89,79,7.56
907,Qaanaaq,GL,77.484,-69.3632,16.38,71,25,7.65
908,Myitkyina,MM,25.3833,97.4,93.92,47,13,0.98
909,Kapaa,US,22.0752,-159.319,78.78,84,90,1.99
910,Vila Franca Do Campo,PT,37.7167,-25.4333,72.19,90,100,7.65
911,Faanui,PF,-16.4833,-151.75,79.68,74,39,11.23
912,Rikitea,PF,-23.1203,-134.9692,73.94,71,3,16.82
913,Nanortalik,GL,60.1432,-45.2371,37.26,71,10,6.53
914,Tutoia,BR,-2.7619,-42.2744,78.8,76,100,15.01
915,Menongue,AO,-14.6585,17.691,82.51,13,0,10.42
916,Borba,BR,-4.3878,-59.5939,72.03,92,33,1.14
917,Hirara,JP,24.8,125.2833,85.86,84,75,13.8
918,Port-Gentil,GA,-0.7193,8.7815,80.56,83,75,12.66
919,Cape Town,ZA,-33.9258,18.4232,65.12,85,75,1.99
920,Bredasdorp,ZA,-34.5322,20.0403,60.28,82,100,4.5
921,Ushuaia,AR,-54.8,-68.3,35.26,75,20,6.91
922,Kapaa,US,22.0752,-159.319,78.78,84,90,1.99
923,Ushuaia,AR,-54.8,-68.3,35.26,75,20,6.91
924,Kavieng,PG,-2.5744,150.7967,83.14,78,72,11.63
925,Talnakh,RU,69.4865,88.3972,40.62,43,51,1.99
926,Bluff,NZ,-46.6,168.3333,41.81,60,99,11.16
927,Saint George,US,37.1041,-113.5841,78.94,34,1,4.0
928,Chuy,UY,-33.6971,-53.4616,58.96,88,92,2.37
929,Kapaa,US,22.0752,-159.319,78.78,84,90,1.99
930,Hobart,AU,-42.8794,147.3294,57.11,57,20,8.05
931,Cherskiy,RU,68.75,161.3,32.11,90,100,10.74
932,Husavik,IS,66.0449,-17.3389,39.11,96,100,29.1
933,Butaritari,KI,3.0707,172.7902,82.69,77,25,12.48
934,Albany,US,42.6001,-73.9662,60.46,86,77,5.01
935,Punta Arenas,CL,-53.15,-70.9167,32.11,93,40,5.75
936,Kapaa,US,22.0752,-159.319,78.78,84,90,1.99
937,Port Alfred,ZA,-33.5906,26.891,66.38,72,87,8.21
938,Busselton,AU,-33.65,115.3333,61.05,75,61,12.5
939,Carnarvon,AU,-24.8667,113.6333,73.47,43,0,13.8
940,Hamilton,US,39.1834,-84.5333,53.78,88,1,0.0
941,Yellowknife,CA,62.456,-114.3525,38.28,99,20,5.75
942,Atuona,PF,-9.8,-139.0333,78.12,75,46,19.19
943,Hilo,US,19.7297,-155.09,79.29,88,75,6.91
944,Busselton,AU,-33.65,115.3333,61.05,75,61,12.5
945,Quatre Cocos,MU,-20.2078,57.7625,77.11,71,2,17.67
946,Nikolskoye,RU,59.7035,30.7861,49.89,88,100,9.19
947,Paducah,US,37.0834,-88.6001,53.29,87,1,0.0
948,Vila Franca Do Campo,PT,37.7167,-25.4333,72.19,90,100,7.65
949,Bretzfeld,DE,49.1794,9.4383,67.55,86,3,1.05
950,Mataura,NZ,-46.1927,168.8643,41.49,91,91,1.61
951,Ushuaia,AR,-54.8,-68.3,35.26,75,20,6.91
952,Hilo,US,19.7297,-155.09,76.73,90,90,6.91
953,Zvishavane,ZW,-20.3267,30.0665,73.98,27,0,5.64
954,Dyersburg,US,36.0345,-89.3856,56.48,100,1,0.0
955,Saskylakh,RU,71.9167,114.0833,33.66,94,100,16.2
956,Nizwa,OM,22.9333,57.5333,97.63,21,94,5.26
957,Cayenne,GF,4.9333,-52.3333,79.09,88,20,0.0
958,Arraial Do Cabo,BR,-22.9661,-42.0278,70.47,83,82,25.52
959,Cabo San Lucas,MX,22.8909,-109.9124,84.51,83,2,3.0
960,Cervo,ES,43.6702,-7.4101,65.97,77,100,8.79
961,Albany,US,42.6001,-73.9662,60.46,86,77,5.01
962,Ribeira Grande,PT,38.5167,-28.7,66.6,88,40,0.0
963,Mataura,NZ,-46.1927,168.8643,41.49,91,91,1.61
964,Uglegorsk,RU,49.0833,142.0333,59.16,77,5,8.86
965,Ponta Do Sol,PT,32.6667,-17.1,69.71,70,100,2.51
966,Jamestown,US,42.097,-79.2353,52.18,94,90,4.0
967,Tiksi,RU,71.6872,128.8694,34.74,88,100,21.85
968,Vaini,TO,-21.2,-175.2,69.96,88,75,4.61
969,Marzuq,YE,14.4,46.4667,88.84,12,37,7.9
970,Saint-Philippe,RE,-21.3585,55.7679,79.21,80,47,14.9
971,Kuching,MY,1.55,110.3333,89.82,66,40,2.3
972,Rikitea,PF,-23.1203,-134.9692,73.94,71,3,16.82
973,Bluff,NZ,-46.6,168.3333,41.81,60,99,11.16
974,Hermanus,ZA,-34.4187,19.2345,64.9,84,100,5.82
975,Albany,US,42.6001,-73.9662,60.46,86,77,5.01
976,Pochutla,MX,15.7432,-96.4661,75.81,87,76,4.97
977,Ushuaia,AR,-54.8,-68.3,35.26,75,20,6.91
978,Bambous Virieux,MU,-20.3428,57.7575,77.25,65,40,13.8
979,Beni Suef,EG,29.0731,31.0979,78.51,49,7,14.43
980,Rawson,AR,-43.3002,-65.1023,48.27,54,6,21.45
981,Longyearbyen,SJ,78.2186,15.6401,37.24,93,75,4.61
982,Isla Vista,US,34.4133,-119.861,61.83,79,90,8.05
983,Barrow,US,71.2906,-156.7887,26.62,86,90,5.75
984,Busselton,AU,-33.65,115.3333,61.05,75,61,12.5
985,Ostrovnoy,RU,68.0531,39.5131,47.35,82,100,3.58
986,Tuktoyaktuk,CA,69.4541,-133.0374,33.6,97,100,13.65
987,Nikolskoye,RU,59.7035,30.7861,49.89,88,100,9.19
988,Chimbote,PE,-9.0853,-78.5783,62.31,88,91,5.59
989,Jamestown,US,42.097,-79.2353,52.18,94,90,4.0
990,Busselton,AU,-33.65,115.3333,61.05,75,61,12.5
991,Mataura,NZ,-46.1927,168.8643,41.49,91,91,1.61
992,Santa Isabel,BR,-23.3156,-46.2214,66.65,97,8,1.74
993,Georgetown,MY,5.4112,100.3354,87.75,72,20,10.36
994,Hobart,AU,-42.8794,147.3294,56.12,59,20,8.05
995,Kargat,RU,55.1956,80.2811,35.69,72,100,12.82
996,Baturaja,ID,-4.1333,104.1667,84.27,74,100,1.5
997,Severnyy,RU,50.677,36.5532,53.64,76,75,24.61
998,Roald,NO,62.5833,6.1333,62.74,55,75,11.5
999,Aktash,RU,50.3,87.7333,35.89,33,100,14.67
1000,Luderitz,NA,-26.6481,15.1594,67.44,47,7,14.05
1001,Saskylakh,RU,71.9167,114.0833,33.66,94,100,16.2
1002,Codrington,AU,-38.2667,141.9667,53.26,71,11,12.86
1003,Atuona,PF,-9.8,-139.0333,78.12,75,46,19.19
1004,Ishigaki,JP,24.3448,124.1572,86.13,79,20,13.8
1005,Punta Arenas,CL,-53.15,-70.9167,32.11,93,40,5.75
1006,Miyako,JP,39.6367,141.9525,64.11,71,100,10.71
1007,Tyrma,RU,50.0833,132.1667,65.59,43,54,0.67
1008,Khatanga,RU,71.9667,102.5,37.08,72,100,12.28
1009,Ahipara,NZ,-35.1667,173.1667,55.38,85,100,10.09
1010,Busselton,AU,-33.65,115.3333,61.05,75,61,12.5
1011,East London,ZA,-33.0153,27.9116,68.94,68,20,10.36
1012,Ushuaia,AR,-54.8,-68.3,35.26,75,20,6.91
1013,Namatanai,PG,-3.6667,152.4333,81.72,80,92,6.82
1014,Mataura,NZ,-46.1927,168.8643,41.49,91,91,1.61
1015,Geraldton,AU,-28.7667,114.6,68.41,52,40,19.57
1016,Kapaa,US,22.0752,-159.319,78.78,84,90,1.99
1017,Verkhoyansk,RU,67.5447,133.385,42.42,62,42,6.76
1018,Santo Andre,BR,-23.6639,-46.5383,65.12,87,40,3.44
1019,Viedma,AR,-40.8135,-62.9967,55.44,40,0,27.45
1020,Baykit,RU,61.67,96.37,38.64,96,100,7.11
1021,Mataura,NZ,-46.1927,168.8643,41.49,91,91,1.61
1022,Quatre Cocos,MU,-20.2078,57.7625,77.11,71,2,17.67
1023,Bredasdorp,ZA,-34.5322,20.0403,60.28,82,100,4.5
1024,Sechura,PE,-5.5569,-80.8222,64.26,84,100,10.85
1025,Arraial Do Cabo,BR,-22.9661,-42.0278,70.47,83,82,25.52
1026,Grindavik,IS,63.8424,-22.4338,42.75,81,90,26.46
1027,Lata,PT,40.1629,-8.3327,60.04,93,94,2.95
1028,Ushuaia,AR,-54.8,-68.3,35.26,75,20,6.91
1029,Charcas,MX,23.1333,-101.1167,57.51,90,86,7.18
1030,Punta Arenas,CL,-53.15,-70.9167,32.11,93,40,5.75
1031,Norman Wells,CA,65.282,-126.8329,32.04,93,75,9.22
1032,Punta Arenas,CL,-53.15,-70.9167,32.11,93,40,5.75
1033,Avarua,CK,-21.2078,-159.775,71.65,88,75,1.14
1034,Yar-Sale,RU,66.8333,70.8333,40.98,57,11,10.87
1035,Mahebourg,MU,-20.4081,57.7,77.29,65,40,13.8
1036,Luderitz,NA,-26.6481,15.1594,67.44,47,7,14.05
1037,Rikitea,PF,-23.1203,-134.9692,73.94,71,3,16.82
1038,Arraial Do Cabo,BR,-22.9661,-42.0278,70.47,83,82,25.52
1039,Jamestown,US,42.097,-79.2353,52.18,94,90,4.0
1040,Rikitea,PF,-23.1203,-134.9692,73.94,71,3,16.82
1041,New Norfolk,AU,-42.7826,147.0587,56.75,55,18,4.16
1042,Ahipara,NZ,-35.1667,173.1667,55.38,85,100,10.09
1043,Vestmannaeyjar,IS,63.4427,-20.2734,41.56,68,100,1.59
1044,Rio Brilhante,BR,-21.8019,-54.5464,74.97,47,0,3.4
1045,Kinnelon,US,41.0018,-74.3671,62.01,92,1,0.0
1046,Jamestown,US,42.097,-79.2353,52.18,94,90,4.0
1047,Karratha,AU,-20.7377,116.8463,85.51,30,0,21.52
1048,Mataura,NZ,-46.1927,168.8643,41.49,91,91,1.61
1049,Bengkulu,ID,-3.8004,102.2655,76.57,90,100,9.86
1050,Bloemhof,ZA,-27.6469,25.607,80.15,15,34,10.02
1051,Ushuaia,AR,-54.8,-68.3,35.26,75,20,6.91
1052,Geraldton,AU,-28.7667,114.6,68.41,52,40,19.57
1053,Ushuaia,AR,-54.8,-68.3,35.26,75,20,6.91
1054,Georgetown,MY,5.4112,100.3354,87.75,72,20,10.36
1055,Jega,NG,12.2175,4.3792,78.57,76,71,6.89
1056,Arraial Do Cabo,BR,-22.9661,-42.0278,70.47,83,82,25.52
1057,Nikolskoye,RU,59.7035,30.7861,49.89,88,100,9.19
1058,Malanje,AO,-9.5402,16.341,71.31,64,19,7.54
1059,Panaba,MX,21.2833,-88.2667,74.46,95,64,5.17
1060,Busselton,AU,-33.65,115.3333,61.05,75,61,12.5
1061,Meulaboh,ID,4.1363,96.1285,80.82,83,99,11.39
1062,Vaini,TO,-21.2,-175.2,69.96,88,75,4.61
1063,Selma,US,36.5708,-119.6121,74.59,68,20,3.44
1064,Hilo,US,19.7297,-155.09,76.73,90,90,6.91
1065,Darfo,IT,45.8779,10.1812,70.14,82,99,3.02
1066,Puerto Ayora,EC,-0.7393,-90.3518,68.79,89,93,7.34
1067,Palu,ID,-0.8917,119.8707,82.47,88,68,2.35
1068,Hermanus,ZA,-34.4187,19.2345,64.9,84,100,5.82
1069,Nyurba,RU,63.2842,118.3319,43.65,51,100,10.51
1070,Pevek,RU,69.7008,170.3133,30.0,92,100,13.51
1071,Parrita,CR,9.5201,-84.3225,82.98,87,100,3.06
1072,Faanui,PF,-16.4833,-151.75,79.68,74,23,10.38
1073,Birin,NP,26.8865,88.0718,75.79,65,94,4.61
1074,Avarua,CK,-21.2078,-159.775,71.65,88,75,1.14
1075,Ilulissat,GL,69.2167,-51.1,17.62,62,0,4.61
1076,Mar Del Plata,AR,-38.0023,-57.5575,57.0,47,2,11.99
1077,Arraial Do Cabo,BR,-22.9661,-42.0278,70.47,83,82,25.52
1078,Ushuaia,AR,-54.8,-68.3,35.26,75,20,6.91
1079,Provideniya,RU,64.3833,-173.3,32.85,77,71,6.64
1080,Torbay,CA,47.6666,-52.7314,47.57,89,75,11.5
1081,Vaini,TO,-21.2,-175.2,69.96,88,75,4.61
1082,Bluff,NZ,-46.6,168.3333,41.81,60,99,11.16
1083,Ushuaia,AR,-54.8,-68.3,35.26,75,20,6.91
1084,Strezhevoy,RU,60.7333,77.5889,44.58,60,100,11.03
1085,Esperance,AU,-33.8667,121.9,75.04,73,63,6.53
1086,Russkaya Polyana,UA,49.417,31.9201,61.95,57,0,15.79
1087,Rognan,NO,67.0953,15.3878,47.05,86,100,7.92
1088,Taksimo,RU,56.3444,114.8794,43.92,98,100,1.34
1089,Bredasdorp,ZA,-34.5322,20.0403,60.28,82,100,4.5
1090,Provideniya,RU,64.3833,-173.3,32.85,77,71,6.64
1091,Norman Wells,CA,65.282,-126.8329,32.04,93,75,9.22
1092,Richards Bay,ZA,-28.783,32.0377,73.45,74,85,15.08
1093,Vaini,TO,-21.2,-175.2,69.96,88,75,4.61
1094,Hobart,AU,-42.8794,147.3294,56.12,59,20,8.05
1095,Bredasdorp,ZA,-34.5322,20.0403,60.28,82,100,4.5
1096,Georgetown,MY,5.4112,100.3354,87.75,72,20,10.36
1097,Cape Town,ZA,-33.9258,18.4232,65.12,85,75,1.99
1098,New Norfolk,AU,-42.7826,147.0587,56.75,55,18,4.16
1099,Codrington,AU,-38.2667,141.9667,53.26,71,11,12.86
1100,Salinas,US,36.6777,-121.6555,61.65,79,90,6.91
1101,Praia,CV,14.9215,-23.5087,77.54,83,75,9.22
1102,Rikitea,PF,-23.1203,-134.9692,73.94,71,3,16.82
1103,Hilo,US,19.7297,-155.09,76.73,90,90,6.91
1104,Atuona,PF,-9.8,-139.0333,77.7,77,60,19.8
1105,Port Alfred,ZA,-33.5906,26.891,66.38,72,87,8.21
1106,Ushuaia,AR,-54.8,-68.3,35.26,75,20,6.91
1107,Port Alfred,ZA,-33.5906,26.891,66.38,72,87,8.21
1108,Vaini,TO,-21.2,-175.2,69.96,88,75,4.61
1109,Ushuaia,AR,-54.8,-68.3,35.26,75,20,6.91
1110,Torbay,CA,47.6666,-52.7314,47.57,89,75,11.5
1111,Hithadhoo,MV,-0.6,73.0833,82.49,75,100,14.9
1112,Leningradskiy,RU,69.3833,178.4167,27.37,92,100,7.34
1113,Ahipara,NZ,-35.1667,173.1667,55.38,85,100,10.09
1114,Ushuaia,AR,-54.8,-68.3,35.26,75,20,6.91
1115,Sao Borja,BR,-28.6606,-56.0044,53.94,91,0,6.02
1116,Bubaque,GW,11.2833,-15.8333,82.6,74,99,4.27
1117,Carballo,ES,43.213,-8.691,64.09,89,100,7.36
1118,Tautira,PF,-17.7333,-149.15,78.82,79,7,14.47
1119,Margate,GB,51.3813,1.3862,64.11,93,70,11.97
1120,Vaini,TO,-21.2,-175.2,69.96,88,75,4.61
1121,Romny,UA,50.751,33.4747,52.72,76,99,16.02
1122,Pontes E Lacerda,BR,-15.2261,-59.3353,78.35,48,1,3.4
1123,Bambous Virieux,MU,-20.3428,57.7575,77.25,65,40,13.8
1124,Muravlenko,RU,63.7898,74.523,40.93,57,39,8.7
1125,Rafraf,TN,37.1904,10.1837,80.91,78,100,18.28
1126,Yellowknife,CA,62.456,-114.3525,38.28,99,20,5.75
1127,Tres Arroyos,AR,-38.3739,-60.2798,53.02,82,7,14.83
1128,Upernavik,GL,72.7868,-56.1549,19.62,61,0,4.7
1129,Georgetown,MY,5.4112,100.3354,87.75,72,20,10.36
1130,Nuuk,GL,64.1835,-51.7216,29.01,74,0,6.91
1131,Sao Joao Da Barra,BR,-21.6403,-41.0511,70.68,76,100,18.43
1132,Jamestown,US,42.097,-79.2353,51.71,94,90,1.99
1133,Strezhevoy,RU,60.7333,77.5889,44.58,60,100,11.03
1134,Rikitea,PF,-23.1203,-134.9692,73.94,71,3,16.82
1135,Yenagoa,NG,4.9247,6.2642,75.02,94,100,2.24
1136,East London,ZA,-33.0153,27.9116,68.94,68,20,10.36
1137,Los Altos,US,37.3852,-122.1141,61.56,85,90,1.99
1138,Cape Town,ZA,-33.9258,18.4232,65.12,85,75,1.99
1139,Kirakira,SB,-10.4544,161.9205,79.83,85,13,9.75
1140,Massakory,TD,12.996,15.7293,87.01,46,46,14.14
1141,Tuktoyaktuk,CA,69.4541,-133.0374,33.6,97,100,13.65
1142,Svobodnyy,RU,51.4,128.1333,63.05,61,40,8.41
1143,Guilin,CN,25.2819,110.2864,96.91,47,4,2.33
1144,Port Alfred,ZA,-33.5906,26.891,68.18,68,85,7.16
1145,Bandarbeyla,SO,9.4942,50.8122,91.02,46,95,23.76
1146,Kidal,ML,18.4411,1.4078,91.2,10,0,17.83
1147,Tasiilaq,GL,65.6145,-37.6368,39.36,57,94,2.55
1148,Imbituba,BR,-28.24,-48.6703,66.81,91,0,6.8
1149,Port Alfred,ZA,-33.5906,26.891,68.18,68,85,7.16
1150,Puerto Ayora,EC,-0.7393,-90.3518,68.65,90,94,7.72
1151,The Valley,AI,18.217,-63.0578,82.26,73,14,11.88
1152,Mataura,NZ,-46.1927,168.8643,41.49,91,91,1.61
1153,Egvekinot,RU,66.3167,-179.1667,22.93,77,100,3.02
1154,Gigmoto,PH,13.7796,124.39,84.24,80,97,8.93
1155,Alofi,NU,-19.0595,-169.9187,66.09,94,71,1.14
1156,Port Elizabeth,ZA,-33.918,25.5701,69.1,68,0,13.8
1157,Goderich,CA,43.7501,-81.7165,59.32,63,11,17.27
1158,Rikitea,PF,-23.1203,-134.9692,73.94,71,3,16.82
1159,Simao,CN,22.7886,100.9748,76.62,64,97,3.85
1160,Mahebourg,MU,-20.4081,57.7,77.29,65,40,13.8
1161,Hamilton,US,39.1834,-84.5333,53.78,88,1,0.0
1162,San Quintin,MX,30.4833,-115.95,66.31,86,43,8.72
1163,Atuona,PF,-9.8,-139.0333,77.7,77,60,19.8
1164,Poltava,UA,49.5937,34.5407,60.78,60,20,17.87
1165,Eureka,US,40.8021,-124.1637,59.67,75,75,2.71
1166,Kaitangata,NZ,-46.2817,169.8464,39.24,79,99,5.17
1167,Rikitea,PF,-23.1203,-134.9692,73.94,71,3,16.82
1168,Rikitea,PF,-23.1203,-134.9692,73.94,71,3,16.82
1169,Albany,US,42.6001,-73.9662,60.46,86,77,3.0
1170,Carnarvon,AU,-24.8667,113.6333,73.47,43,0,13.8
1171,Santa Maria,BR,-29.6842,-53.8069,52.59,96,1,4.03
1172,Rikitea,PF,-23.1203,-134.9692,73.78,73,4,15.93
1173,Arraial Do Cabo,BR,-22.9661,-42.0278,70.47,82,75,24.56
1174,Morant Bay,JM,17.8815,-76.4093,82.02,80,4,6.15
1175,Puerto Ayora,EC,-0.7393,-90.3518,68.65,90,94,7.72
1176,Abu Samrah,SY,35.3029,37.1841,77.54,25,0,1.3
1177,Mecca,SA,21.4267,39.8261,97.54,30,30,8.77
1178,San Jeronimo,PE,-11.9472,-75.2829,47.61,75,77,1.45
1179,Ushuaia,AR,-54.8,-68.3,35.26,75,20,6.91
1180,Fortuna,US,40.5982,-124.1573,59.41,70,90,0.0
1181,Faanui,PF,-16.4833,-151.75,79.68,74,23,10.38
1182,Lerwick,GB,60.1545,-1.1494,55.4,96,67,21.74
1183,Mehamn,NO,71.0357,27.8492,46.87,80,15,14.99
1184,Arraial Do Cabo,BR,-22.9661,-42.0278,70.47,82,75,24.56
1185,Barrow,US,71.2906,-156.7887,26.62,86,90,5.75
1186,Nipawin,CA,53.3668,-104.0009,44.64,93,1,4.61
1187,Bluff,NZ,-46.6,168.3333,42.8,60,83,9.66
1188,Vaini,TO,-21.2,-175.2,69.96,88,75,4.61
1189,Porto Novo,BJ,6.4965,2.6036,75.02,86,100,3.06
1190,Camacha,PT,33.0833,-16.3333,65.16,82,20,0.0
1191,Novyy Urengoy,RU,66.0833,76.6333,41.38,57,6,7.36
1192,Thompson,CA,55.7435,-97.8558,42.96,87,75,0.0
1193,Santa Cruz De Tenerife,ES,28.4682,-16.2546,75.69,85,75,3.0
1194,Bambous Virieux,MU,-20.3428,57.7575,77.25,65,40,13.8
1195,Lampazos De Naranjo,MX,27.0167,-100.5167,72.34,62,12,9.24
1196,Puerto Ayora,EC,-0.7393,-90.3518,68.65,90,94,7.72
1197,Souillac,MU,-20.5167,57.5167,77.38,65,40,13.8
1198,New Norfolk,AU,-42.7826,147.0587,53.1,57,14,1.99
1199,Hobyo,SO,5.3505,48.5268,85.39,61,13,22.15
1200,Avera,US,33.194,-82.5271,62.71,78,0,4.74
1201,Atuona,PF,-9.8,-139.0333,77.7,77,60,19.8
1202,Rikitea,PF,-23.1203,-134.9692,73.78,73,4,15.93
1203,Albany,US,42.6001,-73.9662,60.46,86,77,3.0
1204,Hermanus,ZA,-34.4187,19.2345,65.89,82,100,5.82
1205,Cape Town,ZA,-33.9258,18.4232,66.11,85,75,1.01
1206,Hasaki,JP,35.7333,140.8333,68.29,59,100,12.88
1207,Kloulklubed,PW,7.0419,134.2556,84.7,74,73,9.06
1208,Kodiak,US,57.79,-152.4072,37.33,81,24,7.63
1209,Hilo,US,19.7297,-155.09,76.73,90,90,6.91
1210,Albany,US,42.6001,-73.9662,60.46,86,77,3.0
1211,Cape Town,ZA,-33.9258,18.4232,66.11,85,75,1.01
1212,Rikitea,PF,-23.1203,-134.9692,73.78,73,4,15.93
1213,Selma,US,36.5708,-119.6121,74.59,68,20,3.44
1214,Vaini,TO,-21.2,-175.2,69.96,88,75,4.61
1215,Mayo,US,38.8876,-76.5119,65.28,84,1,3.0
1216,Sinnamary,GF,5.3833,-52.95,78.22,85,64,7.92
1217,Comodoro Rivadavia,AR,-45.8667,-67.5,40.86,60,0,13.8
1218,Port Hardy,CA,50.6996,-127.4199,55.4,100,90,5.75
1219,Baoning,CN,25.3378,110.026,96.66,44,20,4.47
1220,Caravelas,BR,-17.7125,-39.2481,68.7,83,70,4.65
1221,Goes,NL,51.5042,3.8889,64.54,92,84,1.99
1222,Punta Arenas,CL,-53.15,-70.9167,32.11,93,40,5.75
1223,Pizhma,RU,57.8642,47.1171,50.41,78,100,5.01
1224,Scarborough,GB,54.2797,-0.4044,61.09,92,63,1.99
1225,Tikaitnagar,IN,26.95,81.5833,91.4,55,44,4.63
1226,Hoquiam,US,46.9809,-123.8893,57.18,88,90,6.91
1227,Mogadishu,SO,2.0371,45.3438,80.91,70,23,21.03
1228,Mount Isa,AU,-20.7333,139.5,96.57,9,6,11.5
1229,Victoria,HK,22.2855,114.1577,94.21,72,27,1.01
1230,Hermanus,ZA,-34.4187,19.2345,65.89,82,100,5.82
1231,Adeje,ES,28.1227,-16.726,72.97,75,20,8.05
1232,Albany,US,42.6001,-73.9662,60.46,86,77,3.0
1233,Bredasdorp,ZA,-34.5322,20.0403,61.29,81,100,4.99
1234,Barcelona,ES,41.3888,2.159,77.32,66,20,5.99
1235,Rikitea,PF,-23.1203,-134.9692,73.78,73,4,15.93
1236,Makakilo City,US,21.3469,-158.0858,77.32,80,90,6.91
1237,Puerto Escondido,MX,15.85,-97.0667,78.08,84,100,5.12
1238,Ushuaia,AR,-54.8,-68.3,35.26,75,20,6.91
1239,Albany,US,42.6001,-73.9662,60.46,86,77,3.0
1240,Vao,NC,-22.6667,167.4833,68.54,58,97,12.28
1241,Bjelovar,HR,45.8986,16.8489,69.39,57,12,6.67
1242,Liusha,CN,27.2098,108.59,85.89,47,6,2.19
1243,Busselton,AU,-33.65,115.3333,61.05,79,46,11.39
1244,Mataura,NZ,-46.1927,168.8643,42.48,92,95,1.59
1245,Jamestown,US,42.097,-79.2353,51.71,94,90,1.99
1246,Rikitea,PF,-23.1203,-134.9692,73.78,73,4,15.93
1247,Mahebourg,MU,-20.4081,57.7,77.29,65,40,13.8
1248,Albany,US,42.6001,-73.9662,60.46,86,77,3.0
1249,Kerteminde,DK,55.449,10.6577,58.32,83,88,10.94
1250,Mataura,NZ,-46.1927,168.8643,42.48,92,95,1.59
1251,Saint-Philippe,RE,-21.3585,55.7679,79.21,83,47,15.61
1252,Butaritari,KI,3.0707,172.7902,83.17,76,22,12.93
1253,Castro,BR,-24.7911,-50.0119,54.93,97,17,3.87
1254,Moulins,FR,46.5,3.3333,59.29,90,53,3.29
1255,Airai,TL,-8.9266,125.4092,68.25,62,98,2.91
1256,Mengcheng,CN,33.2579,116.5655,79.38,87,99,7.67
1257,Bucerias,MX,20.75,-105.3333,77.99,98,100,3.18
1258,Norman Wells,CA,65.282,-126.8329,32.04,93,75,9.22
1259,Ruwi,OM,23.5996,58.5507,100.09,43,72,8.41
1260,Acapulco,MX,16.8634,-99.8901,78.94,86,99,3.76
1261,Imbituba,BR,-28.24,-48.6703,66.81,91,0,6.8
1262,Conceicao Do Araguaia,BR,-8.2578,-49.2647,77.45,62,58,3.4
1263,Sambava,MG,-14.2667,50.1667,75.83,75,65,17.36
1264,Fairbanks,US,64.8378,-147.7164,33.76,86,75,0.0
1265,Pombas,CV,17.1503,-25.0201,74.98,76,23,10.09
1266,Buraydah,SA,26.326,43.975,88.25,16,0,7.99
1267,Kharp,RU,66.8014,65.8081,40.96,57,58,10.51
1268,Fivizzano,IT,44.2383,10.126,74.07,97,61,1.68
1269,Matagami,CA,49.7502,-77.6328,44.71,100,20,4.61
1270,Albany,US,42.6001,-73.9662,60.46,86,77,3.0
1271,Yellowknife,CA,62.456,-114.3525,37.42,99,20,5.75
1272,Constitucion,CL,-35.3333,-72.4167,48.13,90,49,7.27
1273,Rikitea,PF,-23.1203,-134.9692,73.78,73,4,15.93
1274,Acarau,BR,-2.8856,-40.12,78.26,79,61,15.28
1275,Talnakh,RU,69.4865,88.3972,41.23,43,35,1.68
1276,Aksarka,RU,66.5606,67.7975,42.01,53,83,11.95
1277,Nikolskoye,RU,59.7035,30.7861,49.89,88,100,9.19
1278,Port Alfred,ZA,-33.5906,26.891,68.18,68,85,7.16
1279,Moyale,KE,3.5167,39.0584,71.83,58,100,12.64
1280,Kaitangata,NZ,-46.2817,169.8464,39.24,79,99,5.17
1281,Ushuaia,AR,-54.8,-68.3,35.26,75,20,6.91
1282,Pangnirtung,CA,66.1451,-65.7125,32.04,64,44,2.91
1283,Port Elizabeth,ZA,-33.918,25.5701,69.1,68,0,13.8
1284,Kaitangata,NZ,-46.2817,169.8464,39.24,79,99,5.17
1285,Jamestown,US,42.097,-79.2353,51.71,94,90,1.99
1286,Broome,US,42.2506,-75.833,56.46,80,90,3.0
1287,Bluff,NZ,-46.6,168.3333,42.8,60,83,9.66
1288,Port Elizabeth,ZA,-33.918,25.5701,69.1,68,0,13.8
1289,Barguzin,RU,53.6167,109.6167,41.09,92,93,9.55
1290,Narsaq,GL,60.9167,-46.05,32.22,46,6,8.48
1291,Iqaluit,CA,63.7506,-68.5145,35.33,69,90,15.01
1292,Kushiro,JP,42.975,144.3747,59.95,82,75,8.05
1293,Riverton,US,40.5219,-111.9391,68.5,39,1,4.0
1294,Sulangan,PH,11.1373,123.7228,84.36,70,81,3.94
1295,New Norfolk,AU,-42.7826,147.0587,53.1,57,14,1.99
1296,Dikson,RU,73.5069,80.5464,36.14,83,100,20.92
1297,Edd,ER,13.9297,41.6925,92.3,56,6,9.69
1298,Ponta Do Sol,PT,32.6667,-17.1,69.71,73,100,2.84
1299,Pevek,RU,69.7008,170.3133,30.0,92,100,13.51
1300,Ushuaia,AR,-54.8,-68.3,35.26,75,20,6.91
1301,Qaanaaq,GL,77.484,-69.3632,16.12,72,25,7.85
1302,Arraial Do Cabo,BR,-22.9661,-42.0278,70.47,82,75,24.56
1303,Punta Arenas,CL,-53.15,-70.9167,32.11,93,40,5.75
1304,Port Alfred,ZA,-33.5906,26.891,68.18,68,85,7.16
1305,Meulaboh,ID,4.1363,96.1285,79.39,86,100,10.45
1306,Kapaa,US,22.0752,-159.319,78.78,84,90,24.16
1307,Mar Del Plata,AR,-38.0023,-57.5575,57.0,47,2,11.99
1308,Boca Do Acre,BR,-8.7522,-67.3978,74.44,72,17,1.88
1309,Cayenne,GF,4.9333,-52.3333,78.1,88,80,0.0
1310,Mitu,CO,1.1983,-70.1733,68.18,99,52,2.75
1311,Garowe,SO,8.4054,48.4845,90.79,35,97,22.55
1312,Salalah,OM,17.0151,54.0924,86.09,74,20,10.36
1313,Kabwe,ZM,-14.4469,28.4464,82.38,24,0,10.13
1314,Busselton,AU,-33.65,115.3333,61.05,79,46,11.39
1315,Albany,US,42.6001,-73.9662,60.46,86,77,3.0
1316,Santa Rosa,PH,14.3122,121.1114,92.08,58,84,6.08
1317,Ushuaia,AR,-54.8,-68.3,35.26,75,20,6.91
1318,Albany,US,42.6001,-73.9662,60.46,86,77,3.0
1319,Hermanus,ZA,-34.4187,19.2345,65.89,82,100,5.82
1320,Coyah,GN,9.75,-13.4167,74.44,88,97,1.99
1321,Morondava,MG,-20.2833,44.2833,82.98,57,0,10.92
1322,Kapaa,US,22.0752,-159.319,78.78,84,90,24.16
1323,Longyearbyen,SJ,78.2186,15.6401,37.24,93,75,4.61
1324,Boissevain,CA,49.2306,-100.0559,61.3,50,85,4.34
1325,Lebu,CL,-37.6167,-73.65,46.08,85,16,13.98
1326,Baoning,CN,25.3378,110.026,96.66,44,20,4.47
1327,Lasa,IT,46.6166,10.7002,60.03,78,38,5.14
1328,Klaksvik,FO,62.2266,-6.589,54.52,91,100,30.38
1329,Portmore,JM,17.9702,-76.8672,82.36,82,20,2.3
1330,Dancalan,PH,9.9821,122.7386,84.24,75,100,3.76
1331,Cidreira,BR,-30.1811,-50.2056,61.54,94,9,6.91
1332,Esperance,AU,-33.8667,121.9,75.04,73,63,6.53
1333,Punta Arenas,CL,-53.15,-70.9167,32.11,93,40,5.75
1334,Hilo,US,19.7297,-155.09,76.8,93,90,6.91
1335,Cazones,MX,20.7167,-97.3167,72.23,86,94,4.12
1336,Portland,US,45.5234,-122.6762,62.69,77,1,1.99
1337,Jardim,BR,-21.4803,-56.1381,73.02,46,3,2.75
1338,Atar,MR,20.5169,-13.0499,91.31,24,22,3.33
1339,Kapaa,US,22.0752,-159.319,78.78,84,90,24.16
1340,Bluff,NZ,-46.6,168.3333,42.8,60,83,9.66
1341,Bengkulu,ID,-3.8004,102.2655,76.17,89,100,8.63
1342,Kahului,US,20.8947,-156.47,79.84,81,1,5.75
1343,Mataura,NZ,-46.1927,168.8643,42.48,92,95,1.59
1344,Ponta Do Sol,PT,32.6667,-17.1,69.71,73,100,2.84
1345,Punta Arenas,CL,-53.15,-70.9167,32.11,93,40,5.75
1346,Nikolskoye,RU,59.7035,30.7861,49.89,85,100,9.82
1347,Atbasar,KZ,51.8,68.3333,55.69,36,100,20.2
1348,Busselton,AU,-33.65,115.3333,61.05,79,46,11.39
1349,Klaksvik,FO,62.2266,-6.589,54.52,91,100,30.38
1350,Pevek,RU,69.7008,170.3133,30.0,92,100,13.51
1351,Jamestown,US,42.097,-79.2353,51.71,94,90,1.99
1352,Palana,RU,59.1167,159.9667,40.17,84,100,4.63
1353,Qaanaaq,GL,77.484,-69.3632,16.12,72,25,7.85
1354,Cabo San Lucas,MX,22.8909,-109.9124,84.51,83,4,3.0
1355,Le Vauclin,MQ,14.5452,-60.8388,77.05,94,20,4.61
1356,Atuona,PF,-9.8,-139.0333,77.7,77,60,19.8
1357,Srednekolymsk,RU,67.45,153.6833,34.54,82,100,11.3
1358,Norman Wells,CA,65.282,-126.8329,32.04,93,75,9.22
1359,Vaini,TO,-21.2,-175.2,69.96,88,75,4.61
1360,Cape Town,ZA,-33.9258,18.4232,66.11,85,75,1.01
1361,Kodiak,US,57.79,-152.4072,37.33,81,24,7.63
1362,Khatanga,RU,71.9667,102.5,36.75,74,100,11.41
1363,Avarua,CK,-21.2078,-159.775,71.65,88,75,1.14
1364,Vaini,TO,-21.2,-175.2,69.96,88,75,4.61
1365,Aksu,CN,41.1231,80.2644,78.42,17,0,5.61
1366,Glenwood Springs,US,39.5505,-107.3248,56.07,42,0,1.52
1367,Bluff,NZ,-46.6,168.3333,42.8,60,83,9.66
1368,Hasaki,JP,35.7333,140.8333,68.29,59,100,12.88
1369,Manggar,ID,-2.8833,108.2667,85.24,66,38,7.2
1370,Barrow,US,71.2906,-156.7887,24.82,86,1,4.61
1371,Ust-Maya,RU,60.4167,134.5333,42.13,69,94,3.13
1372,Mahon,ES,39.8885,4.2658,77.56,88,20,5.75
1373,East London,ZA,-33.0153,27.9116,68.94,68,20,10.36
1374,Busselton,AU,-33.65,115.3333,61.05,79,46,11.39
1375,Puerto Ayora,EC,-0.7393,-90.3518,68.65,90,94,7.72
1376,Albany,US,42.6001,-73.9662,60.46,86,77,3.0
1377,Busselton,AU,-33.65,115.3333,61.05,79,46,11.39
1378,Hithadhoo,MV,-0.6,73.0833,82.49,75,100,14.9
1379,Saskylakh,RU,71.9167,114.0833,33.6,97,100,15.55
1380,Khatanga,RU,71.9667,102.5,36.75,74,100,11.41
1381,Georgetown,MY,5.4112,100.3354,87.75,71,20,10.0
1382,Punta Arenas,CL,-53.15,-70.9167,32.11,93,40,5.75
1383,Butaritari,KI,3.0707,172.7902,83.17,76,22,12.93
1384,Dikson,RU,73.5069,80.5464,36.14,83,100,20.92
1385,Batagay-Alyta,RU,67.8006,130.4114,32.99,83,91,1.28
1386,Castro,BR,-24.7911,-50.0119,54.93,97,17,3.87
1387,Turkistan,KZ,43.0,68.0,92.75,6,0,3.38
1388,Gusau,NG,12.1628,6.6614,78.69,73,79,6.35
1389,Ushuaia,AR,-54.8,-68.3,35.26,75,20,6.91
1390,Albany,US,42.6001,-73.9662,60.46,86,77,3.0
1391,Busselton,AU,-33.65,115.3333,61.05,79,46,11.39
1392,Jamestown,US,42.097,-79.2353,51.71,94,90,1.99
1393,Santarem,BR,-2.4431,-54.7083,77.13,100,0,3.44
1394,Hobyo,SO,5.3505,48.5268,85.39,61,13,22.15
1395,Esperance,AU,-33.8667,121.9,75.04,73,63,6.53
1396,Vaini,TO,-21.2,-175.2,69.96,88,75,4.61
1397,Vaini,TO,-21.2,-175.2,69.96,88,75,4.61
1398,Takoradi,GH,4.8845,-1.7554,75.78,88,100,4.29
1399,Store Heddinge,DK,55.3097,12.3889,58.93,83,85,11.92
1400,Lazaro Cardenas,MX,17.9583,-102.2,77.63,87,99,3.0
1401,Hun,LY,29.1268,15.9477,73.45,48,0,4.52
1402,Mataura,NZ,-46.1927,168.8643,42.48,92,95,1.59
1403,Mar Del Plata,AR,-38.0023,-57.5575,57.0,47,2,11.99
1404,Ushuaia,AR,-54.8,-68.3,35.26,75,20,6.91
1405,Vila Velha,BR,-20.3297,-40.2925,67.95,83,20,5.75
1406,Yucaipa,US,34.0336,-117.0431,73.51,78,1,1.01
1407,New Norfolk,AU,-42.7826,147.0587,53.1,57,14,1.99
1408,Port Elizabeth,ZA,-33.918,25.5701,69.1,68,0,13.8
1409,Mataura,NZ,-46.1927,168.8643,42.48,92,95,1.59
1410,Provideniya,RU,64.3833,-173.3,32.85,77,71,6.64
1411,Busselton,AU,-33.65,115.3333,61.05,79,46,11.39
1412,New Norfolk,AU,-42.7826,147.0587,53.1,57,14,1.99
1413,Darnah,LY,32.767,22.6367,76.12,58,0,11.54
1414,Sault Sainte Marie,CA,46.5168,-84.3333,51.62,85,20,6.91
1415,Yellowknife,CA,62.456,-114.3525,37.42,99,20,5.75
1416,Georgetown,MY,5.4112,100.3354,87.75,71,20,10.0
1417,Grindavik,IS,63.8424,-22.4338,42.75,81,75,27.63
1418,Busselton,AU,-33.65,115.3333,61.05,79,46,11.39
1419,Tuktoyaktuk,CA,69.4541,-133.0374,33.6,96,100,13.31
1420,Lazaro Cardenas,MX,17.9583,-102.2,77.63,87,99,3.0
1421,Hofn,IS,64.2539,-15.2082,40.53,89,100,14.32
1422,Vaini,TO,-21.2,-175.2,69.96,88,75,4.61
1423,Pangody,RU,65.85,74.4859,41.76,58,7,4.99
1424,Ponta Do Sol,PT,32.6667,-17.1,69.71,73,100,2.84
1425,Olinda,BR,-8.0089,-34.8553,76.73,73,90,10.36
1426,Clyde River,CA,70.4692,-68.5914,24.13,88,17,5.06
1427,Rikitea,PF,-23.1203,-134.9692,73.78,73,4,15.93
1428,Victoria,HK,22.2855,114.1577,94.21,72,27,1.01
1429,Cape Town,ZA,-33.9258,18.4232,66.11,85,75,1.01
1430,Lagoa,PT,39.05,-27.9833,69.67,82,22,13.22
1431,Kaitangata,NZ,-46.2817,169.8464,39.24,79,99,5.17
1432,Georgetown,MY,5.4112,100.3354,87.75,71,20,10.0
1433,Skibbereen,IE,51.55,-9.2667,60.6,88,65,19.73
1434,Albany,US,42.6001,-73.9662,60.46,85,89,1.99
1435,Hilo,US,19.7297,-155.09,76.8,93,90,6.91
1436,Kaitangata,NZ,-46.2817,169.8464,39.24,79,99,5.17
1437,Kupang,ID,-10.1667,123.5833,84.13,62,86,11.1
1438,Barrow,US,71.2906,-156.7887,24.82,86,1,4.61
1439,Thompson,CA,55.7435,-97.8558,42.96,87,75,0.0
1440,Guane,CU,22.2025,-84.0875,75.78,89,2,3.47
1441,Sao Joao Da Barra,BR,-21.6403,-41.0511,70.68,76,100,18.43
1442,Atuona,PF,-9.8,-139.0333,77.7,77,60,19.8
1443,Guerrero Negro,MX,27.9769,-114.0611,69.33,77,33,12.1
1444,Talnakh,RU,69.4865,88.3972,41.23,43,35,1.68
1445,Ganzhou,CN,28.8184,115.4327,94.23,50,26,5.88
1446,Lazaro Cardenas,MX,17.9583,-102.2,77.63,87,99,3.0
1447,Hirara,JP,24.8,125.2833,85.86,84,75,13.8
1448,Hami,CN,42.8,93.45,72.27,13,0,3.42
1449,Korla,CN,41.7597,86.1469,74.77,15,0,12.08
1450,Jamestown,US,42.097,-79.2353,51.71,94,90,10.36
1451,Hobart,AU,-42.8794,147.3294,53.46,54,20,8.05
1452,Busselton,AU,-33.65,115.3333,61.05,79,46,11.39
1453,Nikolskoye,RU,59.7035,30.7861,49.89,85,100,9.82
1454,Sinnamary,GF,5.3833,-52.95,78.22,85,64,7.92
1455,Albany,US,42.6001,-73.9662,60.46,85,89,1.99
1456,Hyeres,FR,43.1167,6.1167,75.69,83,75,6.91
1457,Kutum,SD,14.2,24.6667,79.23,46,86,7.31
1458,Port Elizabeth,ZA,-33.918,25.5701,71.1,68,0,13.8
1459,Avarua,CK,-21.2078,-159.775,71.65,88,75,1.14
1460,Ushuaia,AR,-54.8,-68.3,35.26,75,20,6.91
1461,Meulaboh,ID,4.1363,96.1285,79.39,86,100,10.45
1462,Kaitangata,NZ,-46.2817,169.8464,39.24,79,99,5.17
1463,Bathsheba,BB,13.2167,-59.5167,77.61,88,40,4.61
1464,Yulara,AU,-25.2406,130.9889,91.24,8,0,13.8
1465,Dikson,RU,73.5069,80.5464,36.14,83,100,20.92
1466,Alofi,NU,-19.0595,-169.9187,66.09,94,71,1.14
1467,Kampot,KH,10.6167,104.1833,82.45,70,100,3.09
1468,Dikson,RU,73.5069,80.5464,36.14,83,100,20.92
1469,Walvis Bay,NA,-22.9575,14.5053,55.09,93,75,8.05
1470,Lebu,CL,-37.6167,-73.65,46.08,85,16,13.98
1471,Ushuaia,AR,-54.8,-68.3,35.26,75,20,6.91
1472,Ushuaia,AR,-54.8,-68.3,35.26,75,20,6.91
1473,Jamestown,US,42.097,-79.2353,51.71,94,90,10.36
1474,Muana,BR,-1.5283,-49.2167,74.57,93,100,5.26
1475,Port Arthur,CN,38.8,121.2667,73.62,82,100,8.55
1476,Leningradskiy,RU,69.3833,178.4167,27.37,92,100,7.34
1477,Nikolskoye,RU,59.7035,30.7861,49.89,85,100,9.82
1478,Imeni Poliny Osipenko,RU,52.4201,136.4853,60.46,62,52,3.31
1479,Tiksi,RU,71.6872,128.8694,34.39,93,100,21.79
1480,Yellowknife,CA,62.456,-114.3525,37.42,99,20,5.75
1481,Atuona,PF,-9.8,-139.0333,77.7,77,60,19.8
1482,Hambantota,LK,6.1241,81.1185,84.54,84,40,19.57
1483,Komsomolskiy,UZ,40.4272,71.7189,84.92,14,0,6.91
1484,Khatanga,RU,71.9667,102.5,36.75,74,100,11.41
1485,Port Hedland,AU,-20.3167,118.5667,87.85,30,0,23.02
1486,Fayaoue,NC,-20.65,166.5333,72.46,65,32,17.25
1487,Mataura,NZ,-46.1927,168.8643,42.48,92,95,1.59
1488,Vaini,TO,-21.2,-175.2,69.96,88,75,4.61
1489,Port Alfred,ZA,-33.5906,26.891,68.18,68,85,7.16
1490,Tiksi,RU,71.6872,128.8694,34.39,93,100,21.79
1491,Malanje,AO,-9.5402,16.341,77.11,50,33,7.29
1492,Anadyr,RU,64.75,177.4833,36.1,80,75,4.0
1493,Cape Town,ZA,-33.9258,18.4232,66.11,85,75,1.01
1494,Hami,CN,42.8,93.45,72.27,13,0,3.42
1495,Cherskiy,RU,68.75,161.3,31.3,92,100,10.02
1496,Nizhniy Kuranakh,RU,58.8353,125.4869,48.25,64,100,7.4
1497,Yellowknife,CA,62.456,-114.3525,37.42,99,20,5.75
1498,Mataura,NZ,-46.1927,168.8643,42.48,92,95,1.59
1499,Carbonia,IT,39.1672,8.5222,79.0,71,100,3.47
1500,Saint-Jovite,CA,46.1186,-74.5966,57.49,93,100,0.0
1501,Busselton,AU,-33.65,115.3333,61.05,79,46,11.39
1502,Leninskoye,KZ,41.7589,69.3864,93.13,5,0,6.46
1503,Kununurra,AU,-15.7667,128.7333,98.58,20,96,8.05
1504,Champerico,GT,14.3,-91.9167,81.36,82,98,4.43
1505,Bluff,NZ,-46.6,168.3333,42.8,60,83,9.66
1506,Lebu,CL,-37.6167,-73.65,46.08,85,16,13.98
1507,Faanui,PF,-16.4833,-151.75,79.68,74,23,10.38
1508,Rikitea,PF,-23.1203,-134.9692,73.78,73,4,15.93
1509,Victoria,HK,22.2855,114.1577,94.21,73,27,3.0
1510,Lumphat,KH,13.4878,106.9816,86.09,69,98,4.76
1511,Punta Arenas,CL,-53.15,-70.9167,32.11,93,40,5.75
1512,Svetlyy,RU,54.675,20.1347,57.25,73,98,2.84
1513,Tirumullaivasal,IN,11.2333,79.8333,89.28,57,100,5.61
1514,Geraldton,AU,-28.7667,114.6,68.41,56,40,16.11
1515,Sistranda,NO,63.7256,8.834,53.56,80,100,10.45
1516,Gambela,ET,8.25,34.5833,79.11,71,96,2.13
1517,Provideniya,RU,64.3833,-173.3,32.85,77,71,6.64
1518,Tuktoyaktuk,CA,69.4541,-133.0374,33.6,96,100,13.31
1519,Atasu,KZ,48.6814,71.6433,66.96,8,92,12.86
1520,Porto Novo,BJ,6.4965,2.6036,75.02,86,100,3.06
1521,Codrington,AU,-38.2667,141.9667,50.83,72,6,12.86
1522,Buraydah,SA,26.326,43.975,88.25,16,0,7.99
1523,Taua,BR,-5.9667,-40.3,73.58,71,13,8.25
1524,Progreso,MX,21.2833,-89.6667,76.1,92,12,7.92
1525,Punta Arenas,CL,-53.15,-70.9167,32.11,93,40,5.75
1526,Victoria,HK,22.2855,114.1577,94.21,73,27,3.0
1527,Ushuaia,AR,-54.8,-68.3,35.26,75,20,6.91
1528,Ancud,CL,-41.8697,-73.8203,33.33,78,6,2.68
1529,Ancud,CL,-41.8697,-73.8203,33.33,78,6,2.68
1530,Salalah,OM,17.0151,54.0924,86.09,74,20,10.36
1531,Narsaq,GL,60.9167,-46.05,32.22,46,6,8.48
1532,Wawa,NG,9.9022,4.4192,78.35,80,100,3.69
1533,Porto Seguro,BR,-16.4497,-39.0647,66.72,94,75,3.44
1534,Busselton,AU,-33.65,115.3333,60.04,79,46,11.39
1535,Tura,IN,25.5198,90.2201,89.24,65,23,2.89
1536,Quatre Cocos,MU,-20.2078,57.7625,77.11,70,4,17.52
1537,Ushuaia,AR,-54.8,-68.3,35.26,75,20,6.91
1538,Hofn,IS,64.2539,-15.2082,40.53,89,100,14.32
1539,Qaanaaq,GL,77.484,-69.3632,16.12,72,25,7.85
1540,Joshimath,IN,30.5667,79.5667,78.66,58,15,8.39
1541,Mar Del Plata,AR,-38.0023,-57.5575,57.0,47,2,11.99
1542,Vaini,TO,-21.2,-175.2,69.96,88,75,4.61
1543,Sao Sepe,BR,-30.1606,-53.5653,52.09,97,3,4.45
1544,Bluff,NZ,-46.6,168.3333,42.8,60,83,9.66
1545,Rochegda,RU,62.8,43.25,47.73,86,100,4.12
1546,Puerto Ayora,EC,-0.7393,-90.3518,68.65,90,94,7.72
1547,Poshekhonye,RU,58.4993,39.1353,47.52,95,100,6.49
1548,Meadow Lake,US,34.8014,-106.5436,63.12,70,72,3.44
1549,Pevek,RU,69.7008,170.3133,30.0,92,100,13.51
1550,Carballo,ES,43.213,-8.691,64.09,88,100,7.36
1551,Punta Arenas,CL,-53.15,-70.9167,32.11,93,40,5.75
1552,Kidal,ML,18.4411,1.4078,91.2,10,0,17.83
1553,Visby,SE,57.6409,18.296,58.77,72,39,6.91
1554,Bluff,NZ,-46.6,168.3333,42.8,60,83,9.66
1555,Tenenkou,ML,14.4572,-4.9169,86.38,50,22,7.27
1556,New Norfolk,AU,-42.7826,147.0587,53.1,57,14,2.84
1557,Hobart,AU,-42.8794,147.3294,53.46,54,20,8.05
1558,Amnat Charoen,TH,15.9167,104.75,83.21,73,99,5.3
1559,San Antonio,US,29.4241,-98.4936,67.32,74,1,0.0
1560,Ponta Do Sol,PT,32.6667,-17.1,69.71,74,100,2.84
1561,Shetpe,KZ,44.1667,52.1167,64.6,45,100,11.03
1562,Namibe,AO,-15.1961,12.1522,63.23,94,90,0.0
1563,Saint-Philippe,RE,-21.3585,55.7679,79.21,83,47,15.61
1564,Berlin,DE,52.5244,13.4105,67.08,86,0,7.0
1565,Davila,PH,18.4726,120.5763,87.78,77,45,21.77
1566,Vaini,TO,-21.2,-175.2,69.96,88,75,4.61
1567,Lagoa,PT,39.05,-27.9833,69.67,82,22,13.22
1568,Alofi,NU,-19.0595,-169.9187,66.09,94,71,1.14
1569,Hilo,US,19.7297,-155.09,76.8,93,90,6.91
1570,Santa Cruz,BO,-17.8,-63.1667,71.06,73,11,5.75
1571,Antofagasta,CL,-23.65,-70.4,56.48,80,53,0.85
1572,Severo-Kurilsk,RU,50.6789,156.125,46.92,88,4,10.36
1573,Cherskiy,RU,68.75,161.3,31.3,92,100,10.02
1574,Clyde River,CA,70.4692,-68.5914,24.13,88,17,5.06
1575,Ushuaia,AR,-54.8,-68.3,35.26,75,20,6.91
1576,Elko,US,41.0002,-115.5012,59.65,25,0,5.01
1577,Udachnyy,RU,66.4167,112.4,40.17,47,21,15.9
1578,Busselton,AU,-33.65,115.3333,60.04,79,46,11.39
1579,Tarnogskiy Gorodok,RU,60.4997,43.5761,50.52,74,100,7.61
1580,Grindavik,IS,63.8424,-22.4338,42.75,81,75,27.63
1581,Fort Smith,US,35.3859,-94.3986,60.84,72,1,3.0
1582,Ilulissat,GL,69.2167,-51.1,17.62,62,0,4.61
1583,Vestmannaeyjar,IS,63.4427,-20.2734,41.9,68,100,2.13
1584,Cap-Aux-Meules,CA,47.3821,-61.8597,62.62,88,100,16.11
1585,Tiksi,RU,71.6872,128.8694,34.39,93,100,21.79
1586,Ushuaia,AR,-54.8,-68.3,35.26,75,20,6.91
1587,Oussouye,SN,12.485,-16.5469,78.89,84,100,2.84
1588,Bluff,NZ,-46.6,168.3333,42.8,60,83,9.66
1589,Talara,PE,-4.5772,-81.2719,65.01,84,100,14.45
1590,Vysokogornyy,RU,50.1167,139.15,53.47,74,14,4.25
1591,Kushima,JP,31.4583,131.2333,85.51,77,13,10.49
1592,Bredasdorp,ZA,-34.5322,20.0403,61.29,81,100,4.99
1593,Sullana,PE,-4.9039,-80.6853,65.3,80,99,6.31
1594,Khandyga,RU,62.6667,135.6,42.19,82,96,4.7
1595,Ushuaia,AR,-54.8,-68.3,35.26,75,20,6.91
1596,San Patricio,US,28.017,-97.5169,76.84,64,99,4.52
1597,Tilichiki,RU,60.4667,166.1,41.65,88,100,3.78
1598,Georgetown,MY,5.4112,100.3354,87.75,71,20,10.0
1599,Olafsvik,IS,64.8945,-23.7142,41.02,88,100,42.23
1600,Bajah,YE,13.8141,44.6301,88.25,16,39,4.45
1601,East London,ZA,-33.0153,27.9116,68.94,68,20,10.36
1602,Mataura,NZ,-46.1927,168.8643,42.48,92,95,1.59
1603,Muros,ES,42.7762,-9.0603,66.24,92,100,10.31
1604,Pianoro,IT,44.393,11.3423,72.63,79,0,2.3
1605,Jamestown,US,42.097,-79.2353,51.71,94,90,10.36
1606,Bluff,NZ,-46.6,168.3333,42.8,60,83,9.66
1607,Kaitangata,NZ,-46.2817,169.8464,39.24,79,99,5.17
1608,Vaini,TO,-21.2,-175.2,69.96,88,75,4.61
1609,Mataura,NZ,-46.1927,168.8643,42.48,92,95,1.59
1610,Port Elizabeth,ZA,-33.918,25.5701,71.1,68,0,13.8
1611,Rikitea,PF,-23.1203,-134.9692,73.78,73,4,15.93
1612,Dikson,RU,73.5069,80.5464,36.14,83,100,20.92
1613,Nikolskoye,RU,59.7035,30.7861,50.4,85,100,9.82
1614,Butaritari,KI,3.0707,172.7902,83.17,76,22,12.93
1615,Tual,ID,-5.6667,132.75,81.12,81,100,13.27
1616,Port Hardy,CA,50.6996,-127.4199,55.4,100,90,5.75
1617,Turiacu,BR,-1.6633,-45.3717,73.71,94,71,5.1
1618,Labuhan,ID,-6.8844,112.2051,82.92,75,87,8.37
1619,Constitucion,CL,-35.3333,-72.4167,48.13,90,49,7.27
1620,New Norfolk,AU,-42.7826,147.0587,53.1,57,14,2.84
1621,Punta Arenas,CL,-53.15,-70.9167,32.11,93,40,5.75
1622,Rikitea,PF,-23.1203,-134.9692,73.78,73,4,15.93
1623,Lebu,CL,-37.6167,-73.65,46.08,85,16,13.98
1624,Cidreira,BR,-30.1811,-50.2056,61.54,94,9,6.91
1625,Saint-Philippe,RE,-21.3585,55.7679,79.21,83,47,15.61
1626,Kapaa,US,22.0752,-159.319,75.52,79,90,24.16
1627,Bambous Virieux,MU,-20.3428,57.7575,77.25,65,40,13.8
1628,Yaan,NG,7.3833,8.5667,74.46,89,98,4.52
1629,New Norfolk,AU,-42.7826,147.0587,53.1,57,14,2.84
1630,Panzhihua,CN,26.5851,101.7128,85.19,51,80,1.66
1631,Ushuaia,AR,-54.8,-68.3,35.26,75,20,6.91
1632,Kruisfontein,ZA,-34.0033,24.7314,68.88,59,92,5.44
1633,Santa Marta,CO,11.2408,-74.199,79.99,74,66,11.16
1634,Hobart,AU,-42.8794,147.3294,53.46,54,20,8.05
1635,Hobart,AU,-42.8794,147.3294,53.46,54,20,8.05
1636,Hobart,AU,-42.8794,147.3294,53.46,54,20,8.05
1637,Coos Bay,US,43.3665,-124.2179,58.01,94,90,6.91
1638,Chipinge,ZW,-20.1883,32.6236,79.79,21,0,1.32
1639,Barrow,US,71.2906,-156.7887,24.82,86,1,4.61
1640,Cape Town,ZA,-33.9258,18.4232,66.11,85,75,1.01
1641,Hithadhoo,MV,-0.6,73.0833,82.49,75,100,14.9
1642,Paulo Afonso,BR,-9.4061,-38.2147,70.83,85,100,10.49
1643,Mali,GN,12.079,-12.2982,63.57,88,100,1.03
1644,Saskylakh,RU,71.9167,114.0833,33.6,97,100,15.55
1645,Ghanzi,BW,-21.5667,21.7833,86.23,13,0,13.09
1646,Rikitea,PF,-23.1203,-134.9692,73.78,73,4,15.93
1647,Vaini,TO,-21.2,-175.2,69.96,88,75,4.61
1648,Ushuaia,AR,-54.8,-68.3,35.26,75,20,6.91
1649,Avera,US,33.194,-82.5271,62.71,78,0,4.74
1650,Marsa Matruh,EG,31.3525,27.2453,77.2,57,40,9.22
1651,Hilo,US,19.7297,-155.09,77.29,90,90,9.22
1652,Kruisfontein,ZA,-34.0033,24.7314,68.88,59,92,5.44
1653,Port Elizabeth,ZA,-33.918,25.5701,71.1,68,0,13.8
1654,Mataura,NZ,-46.1927,168.8643,42.48,92,95,1.59
1655,Ushuaia,AR,-54.8,-68.3,35.26,75,20,6.91
1656,Mataura,NZ,-46.1927,168.8643,42.48,92,95,1.59
1657,Puerto Ayora,EC,-0.7393,-90.3518,68.65,90,94,7.72
1658,Mar Del Plata,AR,-38.0023,-57.5575,57.0,47,2,11.99
1659,Kungurtug,RU,50.5994,97.5228,45.36,35,100,2.19
1660,Lompoc,US,34.6391,-120.4579,58.68,95,90,3.44
1661,Talnakh,RU,69.4865,88.3972,41.23,43,35,1.68
1662,Albany,US,42.6001,-73.9662,60.46,85,89,1.99
1663,Mataura,NZ,-46.1927,168.8643,42.48,92,95,1.59
1664,Upernavik,GL,72.7868,-56.1549,19.62,61,0,4.7
1665,Vila Velha,BR,-20.3297,-40.2925,67.95,83,20,5.75
1666,Tuktoyaktuk,CA,69.4541,-133.0374,33.6,96,100,13.31
1667,Cape Town,ZA,-33.9258,18.4232,66.11,85,75,1.01
1668,Atuona,PF,-9.8,-139.0333,77.7,77,60,19.8
1669,Camabatela,AO,-8.1881,15.375,69.03,69,92,5.84
1670,Port Alfred,ZA,-33.5906,26.891,68.18,68,85,7.16
1671,Albany,US,42.6001,-73.9662,60.46,85,89,1.99
1672,Bluff,NZ,-46.6,168.3333,42.8,60,83,9.66
1673,Padang,ID,-0.9492,100.3543,84.25,82,100,3.74
1674,Barabai,ID,-2.5833,115.3833,83.82,80,86,1.23
1675,Busselton,AU,-33.65,115.3333,60.04,79,46,11.39
1676,Nuuk,GL,64.1835,-51.7216,27.88,68,0,5.99
1677,Northam,GB,51.0333,-4.2167,60.39,94,8,10.83
1678,Novyy Urengoy,RU,66.0833,76.6333,41.38,57,6,7.36
1679,Nikolskoye,RU,59.7035,30.7861,50.4,85,100,9.82
1680,Port Elizabeth,ZA,-33.918,25.5701,71.1,68,0,13.8
1681,Tuktoyaktuk,CA,69.4541,-133.0374,33.6,96,100,13.31
1682,Tessalit,ML,20.1986,1.0114,90.93,10,3,16.71
1683,Butaritari,KI,3.0707,172.7902,83.17,76,22,12.93
1684,Ahuimanu,US,21.4447,-157.8378,78.51,81,40,11.5
1685,Hermanus,ZA,-34.4187,19.2345,65.89,82,100,5.82
1686,Barrow,US,71.2906,-156.7887,24.82,86,1,4.61
1687,Albany,US,42.6001,-73.9662,60.46,85,89,1.99
1688,Albany,US,42.6001,-73.9662,60.46,85,89,1.99
1689,Dumai,ID,1.6833,101.45,86.95,72,73,2.28
1690,Mildura,AU,-34.2,142.15,66.16,19,0,5.75
1691,Jamestown,US,42.097,-79.2353,51.71,94,90,10.36
1692,Rikitea,PF,-23.1203,-134.9692,73.78,73,4,15.93
1693,Hermanus,ZA,-34.4187,19.2345,65.89,82,100,5.82
1694,Bethel,US,41.3712,-73.414,60.91,92,75,0.0
1695,Hambantota,LK,6.1241,81.1185,84.54,84,40,19.57
1696,Koslan,RU,63.4564,48.8989,46.65,94,100,7.25
1697,Lewistown,US,40.5992,-77.5714,58.89,71,1,4.0
1698,Punta Arenas,CL,-53.15,-70.9167,32.11,93,40,5.75
1699,Rikitea,PF,-23.1203,-134.9692,73.78,73,4,15.93
1700,Puerto Ayora,EC,-0.7393,-90.3518,68.65,90,94,7.72
1701,Tomatlan,MX,19.9333,-105.25,72.52,91,100,4.45
1702,Umm Kaddadah,SD,13.6017,26.6876,82.81,53,44,9.19
1703,Dalvik,IS,65.9702,-18.5286,39.13,98,100,22.7
1704,Clyde River,CA,70.4692,-68.5914,24.13,88,17,5.06
1705,Bluff,NZ,-46.6,168.3333,42.8,60,83,9.66
1706,Gorno-Altaysk,RU,51.9561,85.955,36.12,93,100,10.16
1707,Anadyr,RU,64.75,177.4833,36.1,80,75,4.0
1708,Coquimbo,CL,-29.9533,-71.3436,49.73,93,0,2.3
1709,Ushuaia,AR,-54.8,-68.3,35.26,75,20,6.91
1710,Fortuna,US,40.5982,-124.1573,59.41,71,90,1.01
1711,Avarua,CK,-21.2078,-159.775,69.85,94,20,1.14
1712,Busselton,AU,-33.65,115.3333,60.04,79,46,11.39
1713,Alta Gracia,AR,-31.6529,-64.4283,52.57,44,0,2.39
1714,Cherskiy,RU,68.75,161.3,31.3,92,100,10.02
1715,Saint George,US,37.1041,-113.5841,76.95,36,1,4.0
1716,Khatanga,RU,71.9667,102.5,36.75,74,100,11.41
1717,Port Alfred,ZA,-33.5906,26.891,68.18,68,85,7.16
1718,Busselton,AU,-33.65,115.3333,60.04,79,46,11.39
1719,Butaritari,KI,3.0707,172.7902,83.17,76,22,12.93
1720,Lebu,CL,-37.6167,-73.65,46.08,85,16,13.98
1721,Zelenoborskiy,RU,66.845,32.3622,46.63,90,100,1.66
1722,Rikitea,PF,-23.1203,-134.9692,73.78,73,4,15.93
1723,Punta Arenas,CL,-53.15,-70.9167,32.11,93,40,5.75
1724,Avarua,CK,-21.2078,-159.775,69.85,94,20,1.14
1725,Geraldton,AU,-28.7667,114.6,68.41,56,40,16.11
1726,Puerto Ayora,EC,-0.7393,-90.3518,68.65,90,94,7.72
1727,Winslow,US,35.0242,-110.6974,62.78,69,1,1.01
1728,Abu Zabad,SD,12.35,29.25,82.15,56,100,8.12
1729,Ikornnes,NO,62.3873,6.557,65.12,83,100,3.0
1730,Vanimo,PG,-2.6741,141.3028,82.53,78,100,7.25
1731,Ambatondrazaka,MG,-17.8333,48.4167,75.63,45,1,11.56
1732,Valparaiso,CL,-33.0393,-71.6273,54.48,78,0,3.44
1733,Ribeira Grande,PT,38.5167,-28.7,66.6,88,40,4.61
1734,Bluff,NZ,-46.6,168.3333,42.8,60,83,9.66
1735,Busselton,AU,-33.65,115.3333,60.04,79,46,11.39
1736,Xicotencatl,MX,23.0167,-98.8833,76.48,83,100,2.62
1737,Albany,US,42.6001,-73.9662,60.46,85,89,1.01
1738,Freeport,US,40.6576,-73.5832,64.96,80,28,1.99
1739,Hobyo,SO,5.3505,48.5268,85.39,61,13,22.15
1740,Khatanga,RU,71.9667,102.5,36.75,74,100,11.41
1741,Qaanaaq,GL,77.484,-69.3632,16.12,72,25,7.85
1742,Jamestown,US,42.097,-79.2353,51.71,95,93,1.01
1743,Siderno,IT,38.2779,16.302,83.77,62,14,3.94
1744,Hithadhoo,MV,-0.6,73.0833,82.49,75,100,14.9
1745,Potosi,BO,-19.5836,-65.7531,43.75,59,0,5.44
1746,Hobart,AU,-42.8794,147.3294,53.46,54,20,6.91
1747,Port-Cartier,CA,50.0334,-66.8654,53.82,97,100,6.38
1748,Thompson,CA,55.7435,-97.8558,42.96,87,75,0.0
1749,Severo-Kurilsk,RU,50.6789,156.125,46.92,88,4,10.36
1750,Narsaq,GL,60.9167,-46.05,30.76,46,6,8.48
1751,Mahebourg,MU,-20.4081,57.7,77.29,65,40,13.8
1752,Aranos,NA,-24.1333,19.1167,85.87,9,0,14.18
1753,Cape Town,ZA,-33.9258,18.4232,66.11,84,75,1.99
1754,Praya,CV,14.9215,-23.5087,77.54,83,75,9.22
1755,Tuktoyaktuk,CA,69.4541,-133.0374,33.6,96,100,13.31
1756,Mielec,PL,50.2871,21.4239,64.65,71,65,2.77
1757,Cherskiy,RU,68.75,161.3,31.3,92,100,10.02
1758,Albany,US,42.6001,-73.9662,60.46,85,89,1.01
1759,Conde,BR,-7.2597,-34.9075,74.66,88,75,4.61
1760,Faanui,PF,-16.4833,-151.75,79.68,74,23,10.38
1761,Lasa,IT,46.6166,10.7002,61.02,78,38,5.14
1762,Upernavik,GL,72.7868,-56.1549,19.62,61,0,4.7
1763,Cap Malheureux,MU,-19.9842,57.6142,77.49,66,1,11.99
1764,Kisangani,CD,0.5167,25.2,73.8,85,100,4.0
1765,Bergen,NO,60.392,5.328,60.15,74,75,12.66
1766,Ushuaia,AR,-54.8,-68.3,35.26,75,20,6.91
1767,Sicuani,PE,-14.2694,-71.2261,41.59,87,97,4.03
1768,Souillac,MU,-20.5167,57.5167,77.38,65,40,13.8
1769,Albany,US,42.6001,-73.9662,60.46,85,89,1.01
1770,Ejido Hermosillo,MX,32.5121,-114.9238,81.64,42,69,3.49
1771,Torbay,CA,47.6666,-52.7314,47.57,89,75,11.5
1772,Honolulu,US,21.3069,-157.8583,78.62,77,40,3.0
1773,Port Elizabeth,ZA,-33.918,25.5701,71.1,68,0,13.8
1774,Thompson,CA,55.7435,-97.8558,42.96,87,75,0.0
1775,Rikitea,PF,-23.1203,-134.9692,73.78,73,4,15.93
1776,Dingle,PH,10.9995,122.6711,84.83,77,57,4.09
1777,Harnosand,SE,62.6323,17.9379,53.01,69,94,8.28
1778,Tura,IN,25.5198,90.2201,89.24,65,23,2.89
1779,Ugoofaaru,MV,5.6667,73.0,78.03,87,100,26.55
1780,Frumusani,RO,44.2961,26.3256,72.25,29,0,2.57
1781,Butaritari,KI,3.0707,172.7902,83.17,76,22,12.93
1782,Bambous Virieux,MU,-20.3428,57.7575,77.25,65,40,13.8
1783,Busselton,AU,-33.65,115.3333,60.04,79,46,11.39
1784,Barrow,US,71.2906,-156.7887,24.82,86,1,4.61
1785,Mataura,NZ,-46.1927,168.8643,42.48,92,95,1.59
1786,Yellowknife,CA,62.456,-114.3525,37.42,99,20,1.01
1787,Mataura,NZ,-46.1927,168.8643,42.48,92,95,1.59
1788,Dikson,RU,73.5069,80.5464,36.14,83,100,20.92
1789,Rikitea,PF,-23.1203,-134.9692,73.78,73,4,15.93
1790,Mataura,NZ,-46.1927,168.8643,42.48,92,95,1.59
1791,Sika,GM,13.3546,-16.345,73.54,85,100,2.46
1792,Brae,GB,60.3964,-1.353,55.31,92,64,18.43
1793,Alta Floresta,BR,-9.8756,-56.0861,70.25,81,16,1.61
1794,Barrow,US,71.2906,-156.7887,24.82,86,1,4.61
1795,Lompoc,US,34.6391,-120.4579,58.68,95,90,3.44
1796,Cape Town,ZA,-33.9258,18.4232,66.11,84,75,1.99
1797,Busselton,AU,-33.65,115.3333,60.04,79,46,11.39
1798,Nikolskoye,RU,59.7035,30.7861,50.4,85,100,9.82
1799,Rikitea,PF,-23.1203,-134.9692,73.78,73,4,15.93
1800,Klaksvik,FO,62.2266,-6.589,54.52,91,100,30.38
1801,Hermanus,ZA,-34.4187,19.2345,65.89,82,100,5.82
1802,Ushuaia,AR,-54.8,-68.3,35.26,75,20,6.91
1803,Geraldton,AU,-28.7667,114.6,68.41,56,40,16.11
1804,Buala,SB,-8.145,159.5921,81.63,77,20,5.7
1805,Georgetown,MY,5.4112,100.3354,87.75,70,20,10.0
1806,Kamenka,RU,51.3223,42.7678,51.08,92,100,12.41
1807,Nelson Bay,AU,-32.7167,152.15,58.1,68,100,1.99
1808,Mataura,NZ,-46.1927,168.8643,42.48,92,95,1.59
1809,Cape Town,ZA,-33.9258,18.4232,66.11,84,75,1.99
1810,Inhambane,MZ,-23.865,35.3833,77.0,78,20,7.0
1811,Isangel,VU,-19.55,169.2667,70.09,70,27,9.28
1812,Necochea,AR,-38.5473,-58.7368,55.04,92,5,14.52
1813,Vardo,NO,70.3705,31.1107,46.92,85,99,2.8
1814,Noumea,NC,-22.2763,166.4572,67.98,65,21,12.91
1815,New Norfolk,AU,-42.7826,147.0587,53.1,58,14,2.84
1816,Tura,IN,25.5198,90.2201,89.24,65,23,2.89
1817,Anchorage,US,61.2181,-149.9003,37.2,86,20,1.01
1818,Vaini,TO,-21.2,-175.2,69.96,88,75,4.61
1819,Port Alfred,ZA,-33.5906,26.891,68.18,68,85,7.16
1820,Masuri,KR,35.8488,128.1492,72.95,67,98,7.25
1821,Meulaboh,ID,4.1363,96.1285,79.39,86,100,10.45
1822,Cape Town,ZA,-33.9258,18.4232,66.11,84,75,1.99
1823,Ushuaia,AR,-54.8,-68.3,35.26,75,20,6.91
1824,Kargil,IN,34.5667,76.1,63.59,16,0,2.86
1825,Kulhudhuffushi,MV,6.6221,73.07,77.16,92,100,30.38
1826,Busselton,AU,-33.65,115.3333,60.04,79,46,11.39
1827,Albany,US,42.6001,-73.9662,60.46,85,89,1.01
1828,Flin Flon,CA,54.7682,-101.865,45.66,92,97,1.1
1829,Provideniya,RU,64.3833,-173.3,32.85,77,71,6.64
1830,Qaanaaq,GL,77.484,-69.3632,16.12,72,25,7.85
1831,Mount Isa,AU,-20.7333,139.5,94.77,10,6,6.91
1832,Buala,SB,-8.145,159.5921,81.63,77,20,5.7
1833,Albany,US,42.6001,-73.9662,60.46,85,89,1.01
1834,Honiara,SB,-9.4333,159.95,79.7,87,66,5.86
1835,Torbay,CA,47.6666,-52.7314,47.57,89,75,11.5
1836,Hithadhoo,MV,-0.6,73.0833,82.49,75,100,14.9
1837,Port Hardy,CA,50.6996,-127.4199,55.4,100,90,5.75
1838,San Patricio,US,28.017,-97.5169,76.84,64,99,4.52
1839,Saskylakh,RU,71.9167,114.0833,33.6,97,100,15.55
1840,Ibipeba,BR,-11.6408,-42.0111,63.28,87,35,8.68
1841,Boguchany,RU,58.3814,97.4531,46.58,45,100,6.93
1842,Rikitea,PF,-23.1203,-134.9692,73.78,73,4,15.93
1843,Grand Gaube,MU,-20.0064,57.6608,78.39,64,1,10.0
1844,Namibe,AO,-15.1961,12.1522,66.43,74,38,5.1
1845,Koumac,NC,-20.5667,164.2833,71.02,74,99,12.21
1846,Bluff,NZ,-46.6,168.3333,42.8,60,83,9.66
1847,Rikitea,PF,-23.1203,-134.9692,73.78,73,4,15.93
1848,New Norfolk,AU,-42.7826,147.0587,53.1,58,14,2.84
1849,Chokurdakh,RU,70.6333,147.9167,32.68,98,100,16.58
1850,Tautira,PF,-17.7333,-149.15,78.82,79,7,14.47
1851,Azogues,EC,-2.7333,-78.8333,50.23,97,100,4.25
1852,Cape Town,ZA,-33.9258,18.4232,66.11,84,75,1.99
1853,Bredasdorp,ZA,-34.5322,20.0403,61.29,81,100,4.99
1854,Bowen,AU,-20.0167,148.2333,71.91,70,15,14.27
1855,Jamestown,US,42.097,-79.2353,51.71,95,93,1.01
1856,Kapaa,US,22.0752,-159.319,75.52,79,90,24.16
